id,name,long,lat,state_name
01001,Autauga,-86.494165,32.500389,Alabama
01003,Baldwin,-87.762381,30.548923,Alabama
01005,Barbour,-85.310038,31.844036,Alabama
01007,Bibb,-87.127659,33.030921,Alabama
01009,Blount,-86.591491,33.955242999999996,Alabama
01011,Bullock,-85.701192,32.116327000000005,Alabama
01013,Butler,-86.65355,31.773539000000003,Alabama
01015,Calhoun,-85.81944200000001,33.72546,Alabama
01017,Chambers,-85.266474,32.860439,Alabama
01019,Cherokee,-85.629194,34.179333,Alabama
01021,Chilton,-86.68740600000001,32.877547,Alabama
01023,Choctaw,-88.26416400000001,32.016562,Alabama
01025,Clarke,-87.815673,31.685685,Alabama
01027,Clay,-85.820227,33.272412,Alabama
01029,Cleburne,-85.494315,33.62977,Alabama
01031,Coffee,-85.904715,31.354433,Alabama
01033,Colbert,-87.685151,34.723385,Alabama
01035,Conecuh,-86.996483,31.418674,Alabama
01037,Coosa,-86.155035,32.975932,Alabama
01039,Covington,-86.410955,31.282449,Alabama
01041,Crenshaw,-86.29708000000001,31.743487,Alabama
01043,Cullman,-86.831859,34.162362,Alabama
01045,Dale,-85.641269,31.383346000000003,Alabama
01047,Dallas,-87.03495500000001,32.408815000000004,Alabama
01049,DeKalb,-85.817208,34.45511,Alabama
01051,Elmore,-86.225647,32.559652,Alabama
01053,Escambia,-87.282053,31.088737,Alabama
01055,Etowah,-86.02539300000001,34.013692999999996,Alabama
01057,Fayette,-87.77035500000001,33.726422,Alabama
01059,Franklin,-87.793594,34.460481,Alabama
01061,Geneva,-85.788849,31.09426,Alabama
01063,Greene,-87.924,32.830505,Alabama
01065,Hale,-87.62608399999999,32.775804,Alabama
01067,Henry,-85.268828,31.478593,Alabama
01069,Houston,-85.391221,31.20455,Alabama
01071,Jackson,-85.938698,34.731984000000004,Alabama
01073,Jefferson,-86.814688,33.518601000000004,Alabama
01075,Lamar,-88.109649,33.762769,Alabama
01077,Lauderdale,-87.60875899999999,34.866178999999995,Alabama
01079,Lawrence,-87.272414,34.543683,Alabama
01081,Lee,-85.345833,32.588091999999996,Alabama
01083,Limestone,-86.93897199999999,34.815612,Alabama
01085,Lowndes,-86.618688,32.162415,Alabama
01087,Macon,-85.715007,32.425739,Alabama
01089,Madison,-86.613232,34.746392,Alabama
01091,Marengo,-87.800648,32.340478999999995,Alabama
01093,Marion,-87.8743,34.111796999999996,Alabama
01095,Marshall,-86.293279,34.311974,Alabama
01097,Mobile,-88.170637,30.683993,Alabama
01099,Monroe,-87.36089399999999,31.505611,Alabama
01101,Montgomery,-86.243797,32.346175,Alabama
01103,Morgan,-86.93078100000001,34.514252,Alabama
01105,Perry,-87.369219,32.581066,Alabama
01107,Pickens,-88.06647199999999,33.292972999999996,Alabama
01109,Pike,-85.948647,31.787277000000003,Alabama
01111,Randolph,-85.427266,33.257607,Alabama
01113,Russell,-85.062843,32.421972,Alabama
01115,St. Clair,-86.369107,33.660628,Alabama
01117,Shelby,-86.737978,33.290719,Alabama
01119,Sumter,-88.232646,32.57442,Alabama
01121,Talladega,-86.169238,33.372083,Alabama
01123,Tallapoosa,-85.864503,32.85306,Alabama
01125,Tuscaloosa,-87.520229,33.214154,Alabama
01127,Walker,-87.253922,33.834858000000004,Alabama
01129,Washington,-88.18611999999999,31.410368,Alabama
01131,Wilcox,-87.38040699999999,31.999753000000002,Alabama
01133,Winston,-87.415693,34.163824,Alabama
02013,Aleutians East,-162.90153600000002,54.860151,Alaska
02016,Aleutians West,-168.292885,54.023571,Alaska
02020,Anchorage,-149.793182,61.192232,Alaska
02050,Bethel,-162.151263,60.679945999999994,Alaska
02060,Bristol Bay,-156.834047,58.735464,Alaska
02068,Denali,-149.032949,63.882844999999996,Alaska
02070,Dillingham,-158.718472,59.136256,Alaska
02090,Fairbanks North Star,-147.624018,64.831552,Alaska
02100,Haines,-135.559897,59.264125,Alaska
02105,Hoonah-Angoon,-135.384163,58.078281999999994,Alaska
02110,Juneau,-134.530605,58.358516,Alaska
02122,Kenai Peninsula,-151.064475,60.292592000000006,Alaska
02130,Ketchikan Gateway,-131.678527,55.367858,Alaska
02150,Kodiak Island,-152.460881,57.779137,Alaska
02164,Lake and Peninsula,-156.371652,58.557351000000004,Alaska
02170,Matanuska-Susitna,-149.421961,61.611281000000005,Alaska
02180,Nome,-165.295491,64.457026,Alaska
02185,North Slope,-154.862085,70.522779,Alaska
02188,Northwest Arctic,-161.63818500000002,66.943735,Alaska
02195,Petersburg,-133.115025,56.812712,Alaska
02198,Prince of Wales-Hyder,-132.56084199999998,55.448164,Alaska
02220,Sitka,-135.33717099999998,57.062746,Alaska
02230,Skagway,-135.311501,59.464535999999995,Alaska
02240,Southeast Fairbanks,-144.687024,63.856184999999996,Alaska
02261,Valdez-Cordova,-145.882504,61.26149,Alaska
02270,Wade Hampton,-164.314723,62.089902,Alaska
02275,Wrangell,-132.31083700000002,56.38582099999999,Alaska
02282,Yakutat,-139.724878,59.547975,Alaska
02290,Yukon-Koyukuk,-152.550423,65.010262,Alaska
04001,Apache,-109.41483999999998,35.577687,Arizona
04003,Cochise,-110.063053,31.607357,Arizona
04005,Coconino,-111.590056,35.514426,Arizona
04007,Gila,-111.007494,33.82356,Arizona
04009,Graham,-109.81218100000001,32.867329999999995,Arizona
04011,Greenlee,-109.24871200000001,32.970402,Arizona
04012,La Paz,-114.172146,33.908361,Arizona
04013,Maricopa,-112.04143,33.493403,Arizona
04015,Mohave,-114.24963400000001,35.069679,Arizona
04017,Navajo,-110.211155,34.893625,Arizona
04019,Pima,-110.96001000000001,32.216707,Arizona
04021,Pinal,-111.58836399999998,33.060133,Arizona
04023,Santa Cruz,-110.94319499999999,31.434733,Arizona
04025,Yavapai,-112.26776699999999,34.629014,Arizona
04027,Yuma,-114.59866299999999,32.650040000000004,Arizona
05001,Arkansas,-91.46128399999999,34.405316,Arkansas
05003,Ashley,-91.87136,33.179373,Arkansas
05005,Baxter,-92.383933,36.332208,Arkansas
05007,Benton,-94.23054300000001,36.337348,Arkansas
05009,Boone,-93.09934399999999,36.267871,Arkansas
05011,Bradley,-92.103312,33.569321,Arkansas
05013,Calhoun,-92.49555500000001,33.591116,Arkansas
05015,Carroll,-93.57081600000001,36.373069,Arkansas
05017,Chicot,-91.31837800000001,33.32186,Arkansas
05019,Clark,-93.12485600000001,34.094705,Arkansas
05021,Clay,-90.37241800000001,36.370695,Arkansas
05023,Cleburne,-92.037481,35.510232,Arkansas
05025,Cleveland,-92.139146,33.914989,Arkansas
05027,Columbia,-93.24745899999999,33.258045,Arkansas
05029,Conway,-92.70416,35.214487,Arkansas
05031,Craighead,-90.669325,35.835235,Arkansas
05033,Crawford,-94.28435999999999,35.496882,Arkansas
05035,Crittenden,-90.217261,35.17736,Arkansas
05037,Cross,-90.775307,35.252833,Arkansas
05039,Dallas,-92.527123,33.869213,Arkansas
05041,Desha,-91.417485,33.773838,Arkansas
05043,Drew,-91.781779,33.6274,Arkansas
05045,Faulkner,-92.40535899999999,35.104918,Arkansas
05047,Franklin,-93.885464,35.446102,Arkansas
05049,Fulton,-91.764934,36.376787,Arkansas
05051,Garland,-93.081852,34.505811,Arkansas
05053,Grant,-92.41271400000001,34.309174,Arkansas
05055,Greene,-90.523016,36.07312,Arkansas
05057,Hempstead,-93.623587,33.699647,Arkansas
05059,Hot Spring,-92.894595,34.353464,Arkansas
05061,Howard,-93.910184,33.983198,Arkansas
05063,Independence,-91.607539,35.749801,Arkansas
05065,Izard,-91.908429,36.120217,Arkansas
05067,Jackson,-91.24623299999999,35.621102,Arkansas
05069,Jefferson,-92.041179,34.233473,Arkansas
05071,Johnson,-93.47551700000001,35.475272,Arkansas
05073,Lafayette,-93.557538,33.287628999999995,Arkansas
05075,Lawrence,-91.065733,36.070223999999996,Arkansas
05077,Lee,-90.774516,34.785214,Arkansas
05079,Lincoln,-91.746234,33.975379,Arkansas
05081,Little River,-94.195995,33.700518,Arkansas
05083,Logan,-93.768119,35.227532000000004,Arkansas
05085,Lonoke,-91.970577,34.905178,Arkansas
05087,Madison,-93.755297,36.061309,Arkansas
05089,Marion,-92.663368,36.28457,Arkansas
05091,Miller,-93.987504,33.400831,Arkansas
05093,Mississippi,-89.999037,35.84288,Arkansas
05095,Monroe,-91.218021,34.777729,Arkansas
05097,Montgomery,-93.622663,34.517013,Arkansas
05099,Nevada,-93.358085,33.722167999999996,Arkansas
05101,Newton,-93.1705,35.98494,Arkansas
05103,Ouachita,-92.838871,33.574461,Arkansas
05105,Perry,-92.779271,34.999054,Arkansas
05107,Phillips,-90.707796,34.529768,Arkansas
05109,Pike,-93.624765,34.187298,Arkansas
05111,Poinsett,-90.557998,35.60191,Arkansas
05113,Polk,-94.25851899999999,34.52045,Arkansas
05115,Pope,-93.097238,35.309776,Arkansas
05117,Prairie,-91.536241,34.859177,Arkansas
05119,Pulaski,-92.31165899999999,34.773719,Arkansas
05121,Randolph,-90.98841999999999,36.304758,Arkansas
05123,St. Francis,-90.770297,35.015313,Arkansas
05125,Saline,-92.546163,34.593233000000005,Arkansas
05127,Scott,-94.095905,34.907145,Arkansas
05129,Searcy,-92.659155,35.922829,Arkansas
05131,Sebastian,-94.354435,35.318195,Arkansas
05133,Sevier,-94.304091,34.014236,Arkansas
05135,Sharp,-91.520168,36.178492999999996,Arkansas
05137,Stone,-92.137,35.856705,Arkansas
05139,Union,-92.64508000000001,33.20687,Arkansas
05141,Van Buren,-92.421475,35.567839,Arkansas
05143,Washington,-94.17222199999999,36.094275,Arkansas
05145,White,-91.767388,35.243736,Arkansas
05147,Woodruff,-91.25207900000001,35.233191,Arkansas
05149,Yell,-93.28945999999999,35.120982,Arkansas
06001,Alameda,-122.100393,37.705201,California
06003,Alpine,-119.847603,38.728297999999995,California
06005,Amador,-120.775729,38.394208,California
06007,Butte,-121.70763500000001,39.669037,California
06009,Calaveras,-120.63371799999999,38.163627000000005,California
06011,Colusa,-122.08555700000001,39.156147999999995,California
06013,Contra Costa,-122.03013100000001,37.935588,California
06015,Del Norte,-124.16308799999999,41.791232,California
06017,El Dorado,-120.74433,38.746543,California
06019,Fresno,-119.76788400000001,36.738918,California
06021,Glenn,-122.17749099999999,39.663418,California
06023,Humboldt,-124.087189,40.752982,California
06025,Imperial,-115.53448700000001,32.841101,California
06027,Inyo,-118.267513,37.160247,California
06029,Kern,-118.936004,35.372968,California
06031,Kings,-119.72908400000001,36.242748999999996,California
06033,Lake,-122.734609,38.973362,California
06035,Lassen,-120.579176,40.392396999999995,California
06037,Los Angeles,-118.244222,34.065193,California
06039,Madera,-120.00675,37.043099,California
06041,Marin,-122.547075,37.986705,California
06043,Mariposa,-119.957219,37.542747999999996,California
06045,Mendocino,-123.397227,39.285329,California
06047,Merced,-120.623989,37.281015999999994,California
06049,Modoc,-120.65091100000001,41.522584,California
06051,Mono,-118.97059399999999,37.763321999999995,California
06053,Monterey,-121.64616200000002,36.611722,California
06055,Napa,-122.321646,38.329075,California
06057,Nevada,-120.916546,39.219524,California
06059,Orange,-117.86288,33.733953,California
06061,Placer,-121.18246599999999,38.844511,California
06063,Plumas,-120.825847,39.983857,California
06065,Riverside,-117.06620500000001,33.800439000000004,California
06067,Sacramento,-121.38086100000001,38.56895,California
06069,San Benito,-121.40385900000001,36.843404,California
06071,San Bernardino,-117.357474,34.190248,California
06073,San Diego,-117.112994,32.88326,California
06075,San Francisco,-122.438323,37.759598,California
06077,San Joaquin,-121.29810800000001,37.931804,California
06079,San Luis Obispo,-120.667689,35.342391,California
06081,San Mateo,-122.34099099999999,37.56395,California
06083,Santa Barbara,-120.092602,34.639262,California
06085,Santa Clara,-121.910421,37.315104999999996,California
06087,Santa Cruz,-121.936728,36.985171,California
06089,Shasta,-122.29996100000001,40.580269,California
06091,Sierra,-120.41423600000002,39.612588,California
06093,Siskiyou,-122.489833,41.576203,California
06095,Solano,-122.069324,38.235582,California
06097,Sonoma,-122.720522,38.41408,California
06099,Stanislaus,-120.955577,37.619147,California
06101,Sutter,-121.644269,39.135490000000004,California
06103,Tehama,-122.218704,40.115187,California
06105,Trinity,-123.07235700000001,40.681267999999996,California
06107,Tulare,-119.23154699999999,36.251227,California
06109,Tuolumne,-120.32853,37.971531,California
06111,Ventura,-119.02501799999999,34.241989000000004,California
06113,Yolo,-121.721112,38.598913,California
06115,Yuba,-121.506626,39.13883,California
08001,Adams,-104.92747299999999,39.874297,Colorado
08003,Alamosa,-105.877245,37.483069,Colorado
08005,Arapahoe,-104.845968,39.647528,Colorado
08007,Archuleta,-107.085027,37.240087,Colorado
08009,Baca,-102.527089,37.368221000000005,Colorado
08011,Bent,-103.1631,38.072386,Colorado
08013,Boulder,-105.183981,40.063299,Colorado
08014,Broomfield,-105.05549099999999,39.936888,Colorado
08015,Chaffee,-106.082645,38.676497,Colorado
08017,Cheyenne,-102.45777,38.816795,Colorado
08019,Clear Creek,-105.52965,39.712957,Colorado
08021,Conejos,-105.989049,37.195652,Colorado
08023,Costilla,-105.448477,37.281779,Colorado
08025,Crowley,-103.857439,38.188547,Colorado
08027,Custer,-105.381557,38.134215999999995,Colorado
08029,Delta,-107.91055300000001,38.798565,Colorado
08031,Denver,-104.955068,39.72143,Colorado
08033,Dolores,-108.75741000000001,37.740817,Colorado
08035,Douglas,-104.87971200000001,39.48527,Colorado
08037,Eagle,-106.717771,39.599453000000004,Colorado
08039,Elbert,-104.51913,39.382868,Colorado
08041,El Paso,-104.758477,38.873669,Colorado
08043,Fremont,-105.20653200000001,38.426058000000005,Colorado
08045,Garfield,-107.53935600000001,39.507560999999995,Colorado
08047,Gilpin,-105.48021000000001,39.85702,Colorado
08049,Grand,-105.9754,40.050388,Colorado
08051,Gunnison,-106.944723,38.657886,Colorado
08053,Hinsdale,-107.29653,37.996875,Colorado
08055,Huerfano,-104.884201,37.616312,Colorado
08057,Jackson,-106.291292,40.692851,Colorado
08059,Jefferson,-105.128819,39.720524,Colorado
08061,Kiowa,-102.68057900000001,38.470657,Colorado
08063,Kit Carson,-102.435733,39.309763000000004,Colorado
08065,Lake,-106.30806100000001,39.245870000000004,Colorado
08067,La Plata,-107.806184,37.265198,Colorado
08069,Larimer,-105.099218,40.504546000000005,Colorado
08071,Las Animas,-104.503149,37.196601,Colorado
08073,Lincoln,-103.613697,39.173232,Colorado
08075,Logan,-103.187715,40.639399,Colorado
08077,Mesa,-108.543768,39.092851,Colorado
08079,Mineral,-106.93558600000001,37.798623,Colorado
08081,Moffat,-107.625859,40.515239,Colorado
08083,Montezuma,-108.557116,37.370816999999995,Colorado
08085,Montrose,-107.934568,38.479141999999996,Colorado
08087,Morgan,-103.78151700000001,40.256023,Colorado
08089,Otero,-103.657432,38.024096,Colorado
08091,Ouray,-107.746232,38.139834,Colorado
08093,Park,-105.623144,39.311718,Colorado
08095,Phillips,-102.387354,40.599517,Colorado
08097,Pitkin,-106.907765,39.232543,Colorado
08099,Prowers,-102.547035,38.083771999999996,Colorado
08101,Pueblo,-104.645147,38.263684999999995,Colorado
08103,Rio Blanco,-108.280174,40.051033000000004,Colorado
08105,Rio Grande,-106.238805,37.616658,Colorado
08107,Routt,-106.89953500000001,40.453133,Colorado
08109,Saguache,-106.019489,37.915302000000004,Colorado
08111,San Juan,-107.67398899999999,37.804646000000005,Colorado
08113,San Miguel,-107.96003400000001,37.974202000000005,Colorado
08115,Sedgwick,-102.32767,40.960246000000005,Colorado
08117,Summit,-106.054579,39.573131,Colorado
08119,Teller,-105.14053200000001,38.94355,Colorado
08121,Washington,-103.156814,40.092526,Colorado
08123,Weld,-104.788507,40.328082,Colorado
08125,Yuma,-102.486935,40.069472999999995,Colorado
09001,Fairfield,-73.364521,41.207889,Connecticut
09003,Hartford,-72.717282,41.761943,Connecticut
09005,Litchfield,-73.187494,41.727851,Connecticut
09007,Middlesex,-72.57140799999999,41.478564,Connecticut
09009,New Haven,-72.941497,41.396052000000005,Connecticut
09011,New London,-72.09768299999999,41.443373,Connecticut
09013,Tolland,-72.37209,41.842762,Connecticut
09015,Windham,-71.995072,41.804225,Connecticut
10001,Kent,-75.558604,39.12322,Delaware
10003,New Castle,-75.634376,39.68502,Delaware
10005,Sussex,-75.346649,38.662387,Delaware
11001,District of Columbia,-77.01446800000001,38.910270000000004,District of Columbia
12001,Alachua,-82.386845,29.665903000000004,Florida
12003,Baker,-82.185477,30.288432,Florida
12005,Bay,-85.660217,30.206925,Florida
12007,Bradford,-82.128192,29.953428999999996,Florida
12009,Brevard,-80.690979,28.232195,Florida
12011,Broward,-80.227135,26.134058,Florida
12013,Calhoun,-85.122189,30.463143,Florida
12015,Charlotte,-82.119946,26.954793,Florida
12017,Citrus,-82.453512,28.863598,Florida
12019,Clay,-81.79941,30.084386,Florida
12021,Collier,-81.699625,26.199831,Florida
12023,Columbia,-82.660566,30.126051,Florida
12027,DeSoto,-81.864094,27.189369,Florida
12029,Dixie,-83.056329,29.634179,Florida
12031,Duval,-81.622853,30.300302000000002,Florida
12033,Escambia,-87.274788,30.485314000000002,Florida
12035,Flagler,-81.224735,29.523494,Florida
12037,Franklin,-84.822838,29.786787,Florida
12039,Gadsden,-84.581397,30.59828,Florida
12041,Gilchrist,-82.808262,29.704639,Florida
12043,Glades,-81.185404,26.896029,Florida
12045,Gulf,-85.259478,29.988578999999998,Florida
12047,Hamilton,-82.997218,30.501534000000003,Florida
12049,Hardee,-81.815432,27.548312,Florida
12051,Hendry,-81.20257099999999,26.705392,Florida
12053,Hernando,-82.496961,28.50485,Florida
12055,Highlands,-81.442555,27.460415,Florida
12057,Hillsborough,-82.401275,27.976529,Florida
12059,Holmes,-85.758558,30.847684,Florida
12061,Indian River,-80.44058100000001,27.671827,Florida
12063,Jackson,-85.21611899999999,30.800240000000002,Florida
12065,Jefferson,-83.886291,30.504031,Florida
12067,Lafayette,-83.179508,30.065417999999998,Florida
12069,Lake,-81.752026,28.735689,Florida
12071,Lee,-81.858144,26.574991999999998,Florida
12073,Leon,-84.270371,30.466103000000004,Florida
12075,Levy,-82.666319,29.379995,Florida
12077,Liberty,-84.905169,30.399795,Florida
12079,Madison,-83.430563,30.47263,Florida
12081,Manatee,-82.532775,27.477054,Florida
12083,Marion,-82.123367,29.140116,Florida
12085,Martin,-80.244395,27.1443,Florida
12086,Miami-Dade,-80.298888,25.774565,Florida
12087,Monroe,-81.26394499999999,24.739678,Florida
12089,Nassau,-81.647153,30.607962,Florida
12091,Okaloosa,-86.567105,30.542828999999998,Florida
12093,Okeechobee,-80.822153,27.272057,Florida
12095,Orange,-81.384377,28.532854999999998,Florida
12097,Osceola,-81.383484,28.266765000000003,Florida
12099,Palm Beach,-80.146119,26.617075,Florida
12101,Pasco,-82.51608,28.261606,Florida
12103,Pinellas,-82.727651,27.899794,Florida
12105,Polk,-81.799975,28.03114,Florida
12107,Putnam,-81.720431,29.609299,Florida
12109,St. Johns,-81.421504,29.977088000000002,Florida
12111,St. Lucie,-80.353183,27.338067,Florida
12113,Santa Rosa,-87.03695400000001,30.549592999999998,Florida
12115,Sarasota,-82.423893,27.208205,Florida
12117,Seminole,-81.310445,28.697834000000004,Florida
12119,Sumter,-82.03546899999999,28.825768,Florida
12121,Suwannee,-82.987546,30.214688,Florida
12123,Taylor,-83.59796700000001,30.064881,Florida
12125,Union,-82.35691899999999,30.010768,Florida
12127,Volusia,-81.123944,29.073725,Florida
12129,Wakulla,-84.331546,30.185525,Florida
12131,Walton,-86.190665,30.583728999999998,Florida
12133,Washington,-85.625419,30.650717999999998,Florida
13001,Appling,-82.338473,31.77388,Georgia
13003,Atkinson,-82.886363,31.317301,Georgia
13005,Bacon,-82.466071,31.547221,Georgia
13007,Baker,-84.437989,31.307754,Georgia
13009,Baldwin,-83.245659,33.084849,Georgia
13011,Banks,-83.506647,34.351255,Georgia
13013,Barrow,-83.7275,33.993054,Georgia
13015,Bartow,-84.829122,34.208434999999994,Georgia
13017,Ben Hill,-83.248636,31.727638,Georgia
13019,Berrien,-83.252459,31.238588,Georgia
13021,Bibb,-83.687184,32.832049,Georgia
13023,Bleckley,-83.33214,32.401368,Georgia
13025,Brantley,-81.96996999999999,31.216648,Georgia
13027,Brooks,-83.54009,30.842082,Georgia
13029,Bryan,-81.37595400000001,31.979537,Georgia
13031,Bulloch,-81.76241999999999,32.417702,Georgia
13033,Burke,-81.998447,33.101987,Georgia
13035,Butts,-83.97000200000001,33.296102000000005,Georgia
13037,Calhoun,-84.66844499999999,31.527411999999998,Georgia
13039,Camden,-81.635079,30.814165000000003,Georgia
13043,Candler,-82.06230500000001,32.399861,Georgia
13045,Carroll,-85.044673,33.622192999999996,Georgia
13047,Catoosa,-85.17282,34.927795,Georgia
13049,Charlton,-82.023033,30.780002000000003,Georgia
13051,Chatham,-81.126449,32.036008,Georgia
13053,Chattahoochee,-84.899254,32.344231,Georgia
13055,Chattooga,-85.344167,34.495509000000006,Georgia
13057,Cherokee,-84.496595,34.169606,Georgia
13059,Clarke,-83.380863,33.950406,Georgia
13061,Clay,-85.013368,31.633549,Georgia
13063,Clayton,-84.362238,33.553383000000004,Georgia
13065,Clinch,-82.740932,31.017888,Georgia
13067,Cobb,-84.557878,33.943253999999996,Georgia
13069,Coffee,-82.84066700000001,31.516,Georgia
13071,Colquitt,-83.768671,31.180954999999997,Georgia
13073,Columbia,-82.165654,33.516220000000004,Georgia
13075,Cook,-83.424499,31.149846999999998,Georgia
13077,Coweta,-84.736399,33.379117,Georgia
13079,Crawford,-83.934002,32.707681,Georgia
13081,Crisp,-83.77779100000001,31.947962,Georgia
13083,Dade,-85.497004,34.882709000000006,Georgia
13085,Dawson,-84.104119,34.401379999999996,Georgia
13087,Decatur,-84.57036,30.888345,Georgia
13089,DeKalb,-84.248029,33.789813,Georgia
13091,Dodge,-83.175591,32.212815,Georgia
13093,Dooly,-83.784195,32.16758,Georgia
13095,Dougherty,-84.167625,31.573426,Georgia
13097,Douglas,-84.73464399999999,33.724923,Georgia
13099,Early,-84.916722,31.331726,Georgia
13101,Echols,-83.057989,30.708629,Georgia
13103,Effingham,-81.299511,32.291745,Georgia
13105,Elbert,-82.87952299999999,34.126521000000004,Georgia
13107,Emanuel,-82.307952,32.58586,Georgia
13109,Evans,-81.90736700000001,32.169649,Georgia
13111,Fannin,-84.313402,34.901383,Georgia
13113,Fayette,-84.512414,33.427941,Georgia
13115,Floyd,-85.183164,34.255796000000004,Georgia
13117,Forsyth,-84.144322,34.19492,Georgia
13119,Franklin,-83.186079,34.377334999999995,Georgia
13121,Fulton,-84.39364499999999,33.836086,Georgia
13123,Gilmer,-84.483646,34.677248999999996,Georgia
13125,Glascock,-82.609847,33.235927000000004,Georgia
13127,Glynn,-81.486488,31.202697999999998,Georgia
13129,Gordon,-84.908795,34.498326,Georgia
13131,Grady,-84.214288,30.882764,Georgia
13133,Greene,-83.166093,33.549876,Georgia
13135,Gwinnett,-84.057963,33.951956,Georgia
13137,Habersham,-83.54162600000001,34.56516,Georgia
13139,Hall,-83.844712,34.275205,Georgia
13141,Hancock,-83.00204699999999,33.255825,Georgia
13143,Haralson,-85.18547,33.76192,Georgia
13145,Harris,-84.895034,32.699933,Georgia
13147,Hart,-82.96495300000001,34.355413,Georgia
13149,Heard,-85.1134,33.309334,Georgia
13151,Henry,-84.175416,33.475842,Georgia
13153,Houston,-83.66335699999999,32.571603,Georgia
13155,Irwin,-83.280834,31.604646999999996,Georgia
13157,Jackson,-83.584805,34.132059000000005,Georgia
13159,Jasper,-83.72434100000001,33.356251,Georgia
13161,Jeff Davis,-82.600696,31.848776,Georgia
13163,Jefferson,-82.407657,33.063551000000004,Georgia
13165,Jenkins,-81.950133,32.794618,Georgia
13167,Johnson,-82.679535,32.701199,Georgia
13169,Jones,-83.54514,32.962134000000006,Georgia
13171,Lamar,-84.1544,33.080020000000005,Georgia
13173,Lanier,-83.090886,31.035393,Georgia
13175,Laurens,-82.92613100000001,32.516487,Georgia
13177,Lee,-84.173396,31.681194,Georgia
13179,Liberty,-81.578482,31.827765999999997,Georgia
13181,Lincoln,-82.44638,33.781126,Georgia
13183,Long,-81.733663,31.778807,Georgia
13185,Lowndes,-83.280221,30.857006,Georgia
13187,Lumpkin,-83.986879,34.524951,Georgia
13189,McDuffie,-82.46986600000001,33.459617,Georgia
13191,McIntosh,-81.407579,31.47526,Georgia
13193,Macon,-84.038814,32.325041999999996,Georgia
13195,Madison,-83.24068,34.104614,Georgia
13197,Marion,-84.523557,32.380907,Georgia
13199,Meriwether,-84.67284599999999,33.008863,Georgia
13201,Miller,-84.73719799999999,31.159722,Georgia
13205,Mitchell,-84.172094,31.216853000000004,Georgia
13207,Monroe,-83.906823,33.038194,Georgia
13209,Montgomery,-82.533261,32.167319,Georgia
13211,Morgan,-83.485957,33.600243,Georgia
13213,Murray,-84.792066,34.782329,Georgia
13215,Muscogee,-84.930634,32.492289,Georgia
13217,Newton,-83.896609,33.569520000000004,Georgia
13219,Oconee,-83.45794599999999,33.875278,Georgia
13221,Oglethorpe,-83.14492,33.916594,Georgia
13223,Paulding,-84.816609,33.905688,Georgia
13225,Peach,-83.82958,32.584826,Georgia
13227,Pickens,-84.442301,34.455892,Georgia
13229,Pierce,-82.240429,31.314668,Georgia
13231,Pike,-84.366796,33.103227000000004,Georgia
13233,Polk,-85.176771,34.010878000000005,Georgia
13235,Pulaski,-83.48034200000001,32.275344,Georgia
13237,Putnam,-83.339663,33.317059,Georgia
13239,Quitman,-85.077727,31.859377000000002,Georgia
13241,Rabun,-83.407223,34.87903,Georgia
13243,Randolph,-84.758026,31.760403000000004,Georgia
13245,Richmond,-82.049444,33.426859,Georgia
13247,Rockdale,-84.020894,33.642043,Georgia
13249,Schley,-84.306781,32.241549,Georgia
13251,Screven,-81.627328,32.722842,Georgia
13253,Seminole,-84.868027,30.972496000000003,Georgia
13255,Spalding,-84.273339,33.258051,Georgia
13257,Stephens,-83.28868100000001,34.556903999999996,Georgia
13259,Stewart,-84.76451899999999,32.069334999999995,Georgia
13261,Sumter,-84.221818,32.059981,Georgia
13263,Talbot,-84.582116,32.703124,Georgia
13265,Taliaferro,-82.88576,33.5688,Georgia
13267,Tattnall,-82.052217,32.043908,Georgia
13269,Taylor,-84.21508299999999,32.560542,Georgia
13271,Telfair,-82.892471,32.01562,Georgia
13273,Terrell,-84.42886,31.772157,Georgia
13275,Thomas,-83.948411,30.868962,Georgia
13277,Tift,-83.515048,31.454362,Georgia
13279,Toombs,-82.36702199999999,32.183935999999996,Georgia
13281,Towns,-83.782961,34.938691999999996,Georgia
13283,Treutlen,-82.589718,32.387046999999995,Georgia
13285,Troup,-85.031746,33.036737,Georgia
13287,Turner,-83.636891,31.700824,Georgia
13289,Twiggs,-83.416286,32.703662,Georgia
13291,Union,-84.002286,34.874243,Georgia
13293,Upson,-84.324382,32.907469,Georgia
13295,Walker,-85.293376,34.83654,Georgia
13297,Walton,-83.784266,33.795381,Georgia
13299,Ware,-82.383943,31.22682,Georgia
13301,Warren,-82.66284399999999,33.407596000000005,Georgia
13303,Washington,-82.77340600000001,32.962029,Georgia
13305,Wayne,-81.919105,31.611857,Georgia
13307,Webster,-84.56065699999999,32.049343,Georgia
13309,Wheeler,-82.751307,32.146558,Georgia
13311,White,-83.744309,34.601048,Georgia
13313,Whitfield,-84.965686,34.792742,Georgia
13315,Wilcox,-83.40565699999999,31.975167,Georgia
13317,Wilkes,-82.753524,33.755364,Georgia
13319,Wilkinson,-83.239491,32.8443,Georgia
13321,Worth,-83.861186,31.535712,Georgia
15001,Hawaii,-155.421895,19.672837,Hawaii
15003,Honolulu,-157.913673,21.372464,Hawaii
15005,Kalawao,-156.979972,21.188495,Hawaii
15007,Kauai,-159.442112,22.021022,Hawaii
15009,Maui,-156.49381599999998,20.863747,Hawaii
16001,Ada,-116.304409,43.611186,Idaho
16003,Adams,-116.375947,44.848619,Idaho
16005,Bannock,-112.423672,42.869212,Idaho
16007,Bear Lake,-111.341632,42.306336,Idaho
16009,Benewah,-116.63973600000001,47.271692,Idaho
16011,Bingham,-112.355721,43.217372,Idaho
16013,Blaine,-114.29427700000001,43.541366,Idaho
16015,Boise,-115.993695,43.899702000000005,Idaho
16017,Bonner,-116.630982,48.235649,Idaho
16019,Bonneville,-111.997623,43.494876,Idaho
16021,Boundary,-116.302851,48.705964,Idaho
16023,Butte,-113.29456200000001,43.699096999999995,Idaho
16025,Camas,-114.756451,43.350524,Idaho
16027,Canyon,-116.627276,43.611438,Idaho
16029,Caribou,-111.65606299999999,42.643778000000005,Idaho
16031,Cassia,-113.74183300000001,42.482791,Idaho
16033,Clark,-112.278608,44.185815000000005,Idaho
16035,Clearwater,-116.185221,46.485240000000005,Idaho
16037,Custer,-114.04803500000001,44.285168,Idaho
16039,Elmore,-115.68440700000001,43.115320000000004,Idaho
16041,Franklin,-111.872202,42.0993,Idaho
16043,Fremont,-111.61546399999999,44.014844000000004,Idaho
16045,Gem,-116.506739,43.884322999999995,Idaho
16047,Gooding,-114.75106699999999,42.852717,Idaho
16049,Idaho,-116.10656599999999,45.974127,Idaho
16051,Jefferson,-111.969394,43.691123,Idaho
16053,Jerome,-114.46266899999999,42.698446999999994,Idaho
16055,Kootenai,-116.832581,47.73713,Idaho
16057,Latah,-116.93443400000001,46.742968,Idaho
16059,Lemhi,-113.86153,45.127412,Idaho
16061,Lewis,-116.25738999999999,46.238065999999996,Idaho
16063,Lincoln,-114.32606899999999,42.973467,Idaho
16065,Madison,-111.794073,43.819114,Idaho
16067,Minidoka,-113.712227,42.613265999999996,Idaho
16069,Nez Perce,-116.95046200000002,46.394126,Idaho
16071,Oneida,-112.30127399999999,42.181568,Idaho
16073,Owyhee,-116.68155800000001,43.376748,Idaho
16075,Payette,-116.894281,44.020334000000005,Idaho
16077,Power,-112.829004,42.775001,Idaho
16079,Shoshone,-116.085925,47.514637,Idaho
16081,Teton,-111.125546,43.692977,Idaho
16083,Twin Falls,-114.504002,42.558563,Idaho
16085,Valley,-116.073719,44.758677,Idaho
16087,Washington,-116.919922,44.297897999999996,Idaho
17001,Adams,-91.328948,39.943826,Illinois
17003,Alexander,-89.289666,37.149251,Illinois
17005,Bond,-89.432819,38.884622,Illinois
17007,Boone,-88.851989,42.293981,Illinois
17009,Brown,-90.746466,39.964815,Illinois
17011,Bureau,-89.42378000000001,41.382964,Illinois
17013,Calhoun,-90.63801,39.12353,Illinois
17015,Carroll,-89.963255,42.071878999999996,Illinois
17017,Cass,-90.319209,39.979865999999994,Illinois
17019,Champaign,-88.233083,40.128073,Illinois
17021,Christian,-89.254627,39.525298,Illinois
17023,Clark,-87.800246,39.351007,Illinois
17025,Clay,-88.490134,38.716132,Illinois
17027,Clinton,-89.472099,38.587753,Illinois
17029,Coles,-88.258277,39.487297,Illinois
17031,Cook,-87.757714,41.865937,Illinois
17033,Crawford,-87.748024,39.00569,Illinois
17035,Cumberland,-88.28088699999999,39.275965,Illinois
17037,DeKalb,-88.72946,41.927172,Illinois
17039,De Witt,-88.908946,40.171701,Illinois
17041,Douglas,-88.279794,39.766826,Illinois
17043,DuPage,-88.071617,41.849815,Illinois
17045,Edgar,-87.71537,39.635942,Illinois
17047,Edwards,-88.04063000000001,38.402493,Illinois
17049,Effingham,-88.576033,39.094722999999995,Illinois
17051,Fayette,-89.033295,38.997828999999996,Illinois
17053,Ford,-88.217453,40.527421999999994,Illinois
17055,Franklin,-88.953316,37.962134999999996,Illinois
17057,Fulton,-90.119357,40.521963,Illinois
17059,Gallatin,-88.238563,37.770001,Illinois
17061,Greene,-90.373465,39.372240000000005,Illinois
17063,Grundy,-88.347437,41.345273999999996,Illinois
17065,Hamilton,-88.55774699999999,38.092156,Illinois
17067,Hancock,-91.203133,40.425725,Illinois
17069,Hardin,-88.290573,37.478453,Illinois
17071,Henderson,-90.9448,40.828841,Illinois
17073,Henry,-90.134757,41.348782,Illinois
17075,Iroquois,-87.834391,40.763597,Illinois
17077,Jackson,-89.27403100000001,37.747793,Illinois
17079,Jasper,-88.159885,39.003765,Illinois
17081,Jefferson,-88.91080799999999,38.308488,Illinois
17083,Jersey,-90.32042,39.072862,Illinois
17085,Jo Daviess,-90.305944,42.411324,Illinois
17087,Johnson,-88.882358,37.474558,Illinois
17089,Kane,-88.331264,41.918110999999996,Illinois
17091,Kankakee,-87.85086700000001,41.148582,Illinois
17093,Kendall,-88.37906600000001,41.663724,Illinois
17095,Knox,-90.328601,40.937032,Illinois
17097,Lake,-87.96945799999999,42.313072,Illinois
17099,LaSalle,-88.895997,41.350798,Illinois
17101,Lawrence,-87.748328,38.718291,Illinois
17103,Lee,-89.398207,41.810241999999995,Illinois
17105,Livingston,-88.573187,40.907044,Illinois
17107,Logan,-89.36150500000001,40.140775,Illinois
17109,McDonough,-90.669344,40.469471999999996,Illinois
17111,McHenry,-88.34988,42.271471999999996,Illinois
17113,McLean,-88.954977,40.494122999999995,Illinois
17115,Macon,-88.947076,39.851176,Illinois
17117,Macoupin,-89.87703499999999,39.19403,Illinois
17119,Madison,-90.018097,38.801396000000004,Illinois
17121,Marion,-89.01696700000001,38.590709999999994,Illinois
17123,Marshall,-89.315638,41.043034000000006,Illinois
17125,Mason,-89.898924,40.286475,Illinois
17127,Massac,-88.714109,37.178592,Illinois
17129,Menard,-89.79950699999999,39.99726,Illinois
17131,Mercer,-90.687167,41.214043,Illinois
17133,Monroe,-90.171163,38.358529,Illinois
17135,Montgomery,-89.505319,39.198961,Illinois
17137,Morgan,-90.231161,39.718154999999996,Illinois
17139,Moultrie,-88.614419,39.631979,Illinois
17141,Ogle,-89.256098,42.028653000000006,Illinois
17143,Peoria,-89.638993,40.742915,Illinois
17145,Perry,-89.323862,38.058514,Illinois
17147,Piatt,-88.581585,40.007008,Illinois
17149,Pike,-90.859127,39.621311,Illinois
17151,Pope,-88.54991,37.39893,Illinois
17153,Pulaski,-89.13475,37.199543,Illinois
17155,Putnam,-89.270945,41.229306,Illinois
17157,Randolph,-89.809249,38.055541,Illinois
17159,Richland,-88.08831500000001,38.725943,Illinois
17161,Rock Island,-90.504005,41.489142,Illinois
17163,St. Clair,-90.000674,38.550219,Illinois
17165,Saline,-88.536395,37.754785999999996,Illinois
17167,Sangamon,-89.652867,39.772757,Illinois
17169,Schuyler,-90.568639,40.13118,Illinois
17171,Scott,-90.462754,39.645737,Illinois
17173,Shelby,-88.802073,39.396539000000004,Illinois
17175,Stark,-89.792451,41.098377,Illinois
17177,Stephenson,-89.644541,42.324139,Illinois
17179,Tazewell,-89.534104,40.602899,Illinois
17181,Union,-89.23650500000001,37.468579999999996,Illinois
17183,Vermilion,-87.65480600000001,40.149683,Illinois
17185,Wabash,-87.789625,38.431283,Illinois
17187,Warren,-90.636371,40.890638,Illinois
17189,Washington,-89.39393000000001,38.359407,Illinois
17191,Wayne,-88.422496,38.406869,Illinois
17193,White,-88.19224100000001,38.089959,Illinois
17195,Whiteside,-89.82325300000001,41.780798,Illinois
17197,Will,-88.057232,41.565138,Illinois
17199,Williamson,-88.974979,37.755675,Illinois
17201,Winnebago,-89.06224,42.307128000000006,Illinois
17203,Woodford,-89.29030999999999,40.771239,Illinois
18001,Adams,-84.93431700000001,40.753766999999996,Indiana
18003,Allen,-85.12232900000001,41.098642,Indiana
18005,Bartholomew,-85.902794,39.216784999999994,Indiana
18007,Benton,-87.291433,40.575066,Indiana
18009,Blackford,-85.34419,40.469726,Indiana
18011,Boone,-86.398737,40.013009000000004,Indiana
18013,Brown,-86.20969000000001,39.236241,Indiana
18015,Carroll,-86.600098,40.578983,Indiana
18017,Cass,-86.33959200000001,40.747104,Indiana
18019,Clark,-85.732035,38.371546,Indiana
18021,Clay,-87.124217,39.469066,Indiana
18023,Clinton,-86.51230699999999,40.298201,Indiana
18025,Crawford,-86.42344399999999,38.313435,Indiana
18027,Daviess,-87.098076,38.696963000000004,Indiana
18029,Dearborn,-84.920935,39.14462,Indiana
18031,Decatur,-85.49421099999999,39.319975,Indiana
18033,DeKalb,-85.034285,41.378214,Indiana
18035,Delaware,-85.401962,40.20517,Indiana
18037,Dubois,-86.91403199999999,38.357067,Indiana
18039,Elkhart,-85.906728,41.637679,Indiana
18041,Fayette,-85.14749599999999,39.640791,Indiana
18043,Floyd,-85.855645,38.321514,Indiana
18045,Fountain,-87.271946,40.152089000000004,Indiana
18047,Franklin,-85.070265,39.401885,Indiana
18049,Fulton,-86.220078,41.059389,Indiana
18051,Gibson,-87.546685,38.30918,Indiana
18053,Grant,-85.644413,40.525253,Indiana
18055,Greene,-86.992172,39.052316,Indiana
18057,Hamilton,-86.059737,40.002534000000004,Indiana
18059,Hancock,-85.824125,39.811662,Indiana
18061,Harrison,-86.097474,38.233745,Indiana
18063,Hendricks,-86.41505500000001,39.772784,Indiana
18065,Henry,-85.403678,39.928644,Indiana
18067,Howard,-86.132959,40.470704,Indiana
18069,Huntington,-85.487085,40.870224,Indiana
18071,Jackson,-85.942654,38.925896,Indiana
18073,Jasper,-87.149436,41.075783,Indiana
18075,Jay,-85.033025,40.428424,Indiana
18077,Jefferson,-85.43369200000001,38.758956,Indiana
18079,Jennings,-85.648821,39.005169,Indiana
18081,Johnson,-86.113609,39.553276000000004,Indiana
18083,Knox,-87.45768000000001,38.698623,Indiana
18085,Kosciusko,-85.830484,41.266796,Indiana
18087,LaGrange,-85.46117,41.6324,Indiana
18089,Lake,-87.40815500000001,41.526226,Indiana
18091,LaPorte,-86.790977,41.631837,Indiana
18093,Lawrence,-86.49571800000001,38.846385999999995,Indiana
18095,Madison,-85.708901,40.11412,Indiana
18097,Marion,-86.13590500000001,39.791299,Indiana
18099,Marshall,-86.27308199999999,41.347248,Indiana
18101,Martin,-86.848113,38.678357,Indiana
18103,Miami,-86.073933,40.730651,Indiana
18105,Monroe,-86.537697,39.162879,Indiana
18107,Montgomery,-86.90006,40.035109999999996,Indiana
18109,Morgan,-86.39931800000001,39.512251,Indiana
18111,Newton,-87.380385,40.994087,Indiana
18113,Noble,-85.391205,41.413892,Indiana
18115,Ohio,-84.911295,38.954549,Indiana
18117,Orange,-86.49698199999999,38.562156,Indiana
18119,Owen,-86.79982199999999,39.315596,Indiana
18121,Parke,-87.227997,39.758327,Indiana
18123,Perry,-86.705205,38.009327,Indiana
18125,Pike,-87.233923,38.424833,Indiana
18127,Porter,-87.105308,41.513678999999996,Indiana
18129,Posey,-87.823041,38.013245,Indiana
18131,Pulaski,-86.685266,41.050592,Indiana
18133,Putnam,-86.835611,39.646107,Indiana
18135,Randolph,-84.997064,40.168572999999995,Indiana
18137,Ripley,-85.218379,39.159402,Indiana
18139,Rush,-85.47456899999999,39.623616,Indiana
18141,St. Joseph,-86.228686,41.6754,Indiana
18143,Scott,-85.762718,38.698198,Indiana
18145,Shelby,-85.789825,39.536039,Indiana
18147,Spencer,-87.011149,38.015495,Indiana
18149,Starke,-86.631962,41.282896,Indiana
18151,Steuben,-85.010662,41.649521,Indiana
18153,Sullivan,-87.39098800000001,39.103093,Indiana
18155,Switzerland,-85.023499,38.819835,Indiana
18157,Tippecanoe,-86.886971,40.41788,Indiana
18159,Tipton,-86.050587,40.308849,Indiana
18161,Union,-84.919102,39.618626,Indiana
18163,Vanderburgh,-87.551819,37.996062,Indiana
18165,Vermillion,-87.44023100000001,39.763164,Indiana
18167,Vigo,-87.387985,39.460817,Indiana
18169,Wabash,-85.80237199999999,40.858522,Indiana
18171,Warren,-87.326289,40.312186,Indiana
18173,Warrick,-87.352574,38.012884,Indiana
18175,Washington,-86.08667700000001,38.572886,Indiana
18177,Wayne,-84.949811,39.842737,Indiana
18179,Wells,-85.194412,40.770771,Indiana
18181,White,-86.81030600000001,40.755697999999995,Indiana
18183,Whitley,-85.47848,41.163144,Indiana
19001,Adair,-94.479157,41.344629,Iowa
19003,Adams,-94.70963499999999,41.006693,Iowa
19005,Allamakee,-91.417115,43.25705,Iowa
19007,Appanoose,-92.86703399999999,40.739836,Iowa
19009,Audubon,-94.925302,41.676829,Iowa
19011,Benton,-92.017478,42.06222,Iowa
19013,Black Hawk,-92.370013,42.490851,Iowa
19015,Boone,-93.895155,42.026494,Iowa
19017,Bremer,-92.37696700000001,42.743058000000005,Iowa
19019,Buchanan,-91.901041,42.486957000000004,Iowa
19021,Buena Vista,-95.181444,42.679153,Iowa
19023,Butler,-92.75869200000001,42.707538,Iowa
19025,Calhoun,-94.625331,42.400162,Iowa
19027,Carroll,-94.867634,42.038571000000005,Iowa
19029,Cass,-94.979466,41.365898,Iowa
19031,Cedar,-91.137388,41.757883,Iowa
19033,Cerro Gordo,-93.246222,43.135116,Iowa
19035,Cherokee,-95.593937,42.749288,Iowa
19037,Chickasaw,-92.344319,43.038059000000004,Iowa
19039,Clarke,-93.78126,41.036834999999996,Iowa
19041,Clay,-95.159571,43.127315,Iowa
19043,Clayton,-91.322919,42.860096999999996,Iowa
19045,Clinton,-90.335737,41.852707,Iowa
19047,Crawford,-95.35845400000001,42.027366,Iowa
19049,Dallas,-93.92336800000001,41.645223,Iowa
19051,Davis,-92.415821,40.765097,Iowa
19053,Decatur,-93.821366,40.71001,Iowa
19055,Delaware,-91.383342,42.482434000000005,Iowa
19057,Des Moines,-91.141489,40.833525,Iowa
19059,Dickinson,-95.133548,43.389624,Iowa
19061,Dubuque,-90.759915,42.493726,Iowa
19063,Emmet,-94.75499,43.394425,Iowa
19065,Fayette,-91.855375,42.820384999999995,Iowa
19067,Floyd,-92.75233,43.074625,Iowa
19069,Franklin,-93.240318,42.755202000000004,Iowa
19071,Fremont,-95.623322,40.747942,Iowa
19073,Greene,-94.375962,42.029792,Iowa
19075,Grundy,-92.748284,42.380262,Iowa
19077,Guthrie,-94.431251,41.669446,Iowa
19079,Hamilton,-93.76698499999999,42.407552,Iowa
19081,Hancock,-93.705072,43.092013,Iowa
19083,Hardin,-93.215799,42.436775,Iowa
19085,Harrison,-95.80743299999999,41.662391,Iowa
19087,Henry,-91.537058,40.981343,Iowa
19089,Howard,-92.231027,43.361616,Iowa
19091,Humboldt,-94.215551,42.746790000000004,Iowa
19093,Ida,-95.50438100000001,42.391343,Iowa
19095,Iowa,-92.039923,41.702615,Iowa
19097,Jackson,-90.56678199999999,42.139283,Iowa
19099,Jasper,-93.070038,41.678374,Iowa
19101,Jefferson,-91.964603,41.013171,Iowa
19103,Johnson,-91.55830999999999,41.679755,Iowa
19105,Jones,-91.198513,42.136466999999996,Iowa
19107,Keokuk,-92.17499000000001,41.325439,Iowa
19109,Kossuth,-94.22057,43.147016,Iowa
19111,Lee,-91.396226,40.55857,Iowa
19113,Linn,-91.647251,42.009607,Iowa
19115,Louisa,-91.259929,41.22579,Iowa
19117,Lucas,-93.31304499999999,41.021148,Iowa
19119,Lyon,-96.218544,43.385265000000004,Iowa
19121,Madison,-93.989405,41.347064,Iowa
19123,Mahaska,-92.64101600000001,41.31208,Iowa
19125,Marion,-93.04269000000001,41.35483,Iowa
19127,Marshall,-92.93842099999999,42.031353,Iowa
19129,Mills,-95.695267,41.04967,Iowa
19131,Mitchell,-92.803247,43.336257,Iowa
19133,Monona,-95.985135,42.063026,Iowa
19135,Monroe,-92.827682,41.035615,Iowa
19137,Montgomery,-95.16799499999999,41.008619,Iowa
19139,Muscatine,-91.078997,41.464065000000005,Iowa
19141,O'Brien,-95.690881,43.126413,Iowa
19143,Osceola,-95.680373,43.386379999999996,Iowa
19145,Page,-95.188476,40.747616,Iowa
19147,Palo Alto,-94.690212,43.099878000000004,Iowa
19149,Plymouth,-96.20343100000001,42.747907,Iowa
19151,Pocahontas,-94.700868,42.745402,Iowa
19153,Polk,-93.641654,41.623296,Iowa
19155,Pottawattamie,-95.79515,41.278533,Iowa
19157,Poweshiek,-92.62066300000001,41.709953000000006,Iowa
19159,Ringgold,-94.23852,40.733763,Iowa
19161,Sac,-95.088801,42.375805,Iowa
19163,Scott,-90.567812,41.563153,Iowa
19165,Shelby,-95.320336,41.665153000000004,Iowa
19167,Sioux,-96.16727,43.079825,Iowa
19169,Story,-93.601827,42.026371000000005,Iowa
19171,Tama,-92.542587,42.065599,Iowa
19173,Taylor,-94.673438,40.755364,Iowa
19175,Union,-94.318925,41.053083,Iowa
19177,Van Buren,-91.939134,40.745557,Iowa
19179,Wapello,-92.418385,41.016218,Iowa
19181,Warren,-93.588243,41.400884999999995,Iowa
19183,Washington,-91.695465,41.361978,Iowa
19185,Wayne,-93.312926,40.740054,Iowa
19187,Webster,-94.179066,42.480374,Iowa
19189,Winnebago,-93.66703100000001,43.34288,Iowa
19191,Winneshiek,-91.814375,43.281284,Iowa
19193,Woodbury,-96.344174,42.483225,Iowa
19195,Worth,-93.252258,43.36654,Iowa
19197,Wright,-93.755488,42.732195000000004,Iowa
20001,Allen,-95.367053,37.896584000000004,Kansas
20003,Anderson,-95.264386,38.250112,Kansas
20005,Atchison,-95.181488,39.555583,Kansas
20007,Barber,-98.557384,37.212182,Kansas
20009,Barton,-98.757739,38.394738000000004,Kansas
20011,Bourbon,-94.749443,37.845557,Kansas
20013,Brown,-95.550384,39.801272999999995,Kansas
20015,Butler,-96.98977099999999,37.727135,Kansas
20017,Chase,-96.55937800000001,38.358336,Kansas
20019,Chautauqua,-96.231466,37.111002,Kansas
20021,Cherokee,-94.75507900000001,37.115229,Kansas
20023,Cheyenne,-101.73899399999999,39.768136,Kansas
20025,Clark,-99.87303299999999,37.290453,Kansas
20027,Clay,-97.12257,39.356195,Kansas
20029,Cloud,-97.637247,39.53395,Kansas
20031,Coffey,-95.739982,38.247657000000004,Kansas
20033,Comanche,-99.365215,37.236270000000005,Kansas
20035,Cowley,-96.997786,37.174285,Kansas
20037,Crawford,-94.731394,37.439934,Kansas
20039,Decatur,-100.490859,39.804328999999996,Kansas
20041,Dickinson,-97.149128,38.881314,Kansas
20043,Doniphan,-95.07500999999999,39.788641999999996,Kansas
20045,Douglas,-95.251337,38.941783,Kansas
20047,Edwards,-99.354911,37.914412,Kansas
20049,Elk,-96.23670200000001,37.421638,Kansas
20051,Ellis,-99.32999000000001,38.88156,Kansas
20053,Ellsworth,-98.262851,38.721016,Kansas
20055,Finney,-100.86582,37.97733,Kansas
20057,Ford,-99.994842,37.751112,Kansas
20059,Franklin,-95.260071,38.602731,Kansas
20061,Geary,-96.83925,39.03865,Kansas
20063,Gove,-100.374241,39.047631,Kansas
20065,Graham,-99.85785200000001,39.359746,Kansas
20067,Grant,-101.34973000000001,37.580306,Kansas
20069,Gray,-100.412964,37.726577,Kansas
20071,Greeley,-101.763211,38.487089000000005,Kansas
20073,Greenwood,-96.226569,37.85753,Kansas
20075,Hamilton,-101.76765999999999,37.979185,Kansas
20077,Harper,-98.051218,37.215092,Kansas
20079,Harvey,-97.385273,38.047084999999996,Kansas
20081,Haskell,-100.89411,37.500029,Kansas
20083,Hodgeman,-99.867564,38.083504,Kansas
20085,Jackson,-95.751346,39.400923999999996,Kansas
20087,Jefferson,-95.397856,39.210891,Kansas
20089,Jewell,-98.201227,39.775457,Kansas
20091,Johnson,-94.73713199999999,38.928049,Kansas
20093,Kearny,-101.237967,37.954211,Kansas
20095,Kingman,-98.097712,37.608437,Kansas
20097,Kiowa,-99.257059,37.598711,Kansas
20099,Labette,-95.260544,37.258236,Kansas
20101,Lane,-100.487778,38.503002,Kansas
20103,Leavenworth,-94.95930200000001,39.238518,Kansas
20105,Lincoln,-98.175271,39.036065,Kansas
20107,Linn,-94.801632,38.237359000000005,Kansas
20109,Logan,-100.92526099999999,39.098288000000004,Kansas
20111,Lyon,-96.17977900000001,38.416154,Kansas
20113,McPherson,-97.647603,38.381163,Kansas
20115,Marion,-97.124507,38.326437,Kansas
20117,Marshall,-96.573612,39.800028000000005,Kansas
20119,Meade,-100.394216,37.292089000000004,Kansas
20121,Miami,-94.83638499999999,38.590405,Kansas
20123,Mitchell,-98.174198,39.454968,Kansas
20125,Montgomery,-95.695334,37.139982,Kansas
20127,Morris,-96.588826,38.698153999999995,Kansas
20129,Morton,-101.83833299999999,37.047093,Kansas
20131,Nemaha,-95.96262800000001,39.829915,Kansas
20133,Neosho,-95.39482,37.624963,Kansas
20135,Ness,-99.898826,38.492429,Kansas
20137,Norton,-99.878289,39.820601,Kansas
20139,Osage,-95.711621,38.698945,Kansas
20141,Osborne,-98.707572,39.424792,Kansas
20143,Ottawa,-97.681833,39.096434,Kansas
20145,Pawnee,-99.147286,38.178540999999996,Kansas
20147,Phillips,-99.349355,39.757048,Kansas
20149,Pottawatomie,-96.316121,39.258472999999995,Kansas
20151,Pratt,-98.731177,37.645065,Kansas
20153,Rawlins,-101.053756,39.807807000000004,Kansas
20155,Reno,-97.933041,38.050915,Kansas
20157,Republic,-97.659183,39.818188,Kansas
20159,Rice,-98.20102800000001,38.321963000000004,Kansas
20161,Riley,-96.633015,39.189473,Kansas
20163,Rooks,-99.31679100000001,39.314265999999996,Kansas
20165,Rush,-99.28359300000001,38.525797,Kansas
20167,Russell,-98.82495899999999,38.904508,Kansas
20169,Saline,-97.60673299999999,38.815777000000004,Kansas
20171,Scott,-100.913605,38.482303,Kansas
20173,Sedgwick,-97.344603,37.678808000000004,Kansas
20175,Seward,-100.9161,37.052196,Kansas
20177,Shawnee,-95.705467,39.035591,Kansas
20179,Sheridan,-100.467964,39.367909999999995,Kansas
20181,Sherman,-101.726283,39.349294,Kansas
20183,Smith,-98.809623,39.770675,Kansas
20185,Stafford,-98.736685,38.006859999999996,Kansas
20187,Stanton,-101.756238,37.566266999999996,Kansas
20189,Stevens,-101.322335,37.190103,Kansas
20191,Sumner,-97.406852,37.304076,Kansas
20193,Thomas,-101.04619,39.38443,Kansas
20195,Trego,-99.881979,39.004452,Kansas
20197,Wabaunsee,-96.177572,38.984769,Kansas
20199,Wallace,-101.765288,38.888589,Kansas
20201,Washington,-97.054087,39.782029,Kansas
20203,Wichita,-101.349386,38.494296999999996,Kansas
20205,Wilson,-95.741217,37.512574,Kansas
20207,Woodson,-95.739522,37.8733,Kansas
20209,Wyandotte,-94.707937,39.104143,Kansas
21001,Adair,-85.279096,37.107756,Kentucky
21003,Allen,-86.208056,36.747908,Kentucky
21005,Anderson,-84.923071,38.028088000000004,Kentucky
21007,Ballard,-88.97886,37.04421,Kentucky
21009,Barren,-85.931813,36.996774,Kentucky
21011,Bath,-83.73656,38.139441,Kentucky
21013,Bell,-83.701396,36.687928,Kentucky
21015,Boone,-84.679715,38.9871,Kentucky
21017,Bourbon,-84.246611,38.202978,Kentucky
21019,Boyd,-82.66654799999999,38.431905,Kentucky
21021,Boyle,-84.799493,37.635777000000004,Kentucky
21023,Bracken,-84.070088,38.702562,Kentucky
21025,Breathitt,-83.37768,37.520092,Kentucky
21027,Breckinridge,-86.410471,37.770382,Kentucky
21029,Bullitt,-85.655385,38.022943,Kentucky
21031,Butler,-86.680574,37.218921,Kentucky
21033,Caldwell,-87.87921999999999,37.127446,Kentucky
21035,Calloway,-88.305814,36.620185,Kentucky
21037,Campbell,-84.44141,39.035049,Kentucky
21039,Carlisle,-88.94788,36.854337,Kentucky
21041,Carroll,-85.139328,38.668554,Kentucky
21043,Carter,-83.03815999999999,38.313503000000004,Kentucky
21045,Casey,-84.92416800000001,37.303319,Kentucky
21047,Christian,-87.478173,36.810955,Kentucky
21049,Clark,-84.182232,37.986825,Kentucky
21051,Clay,-83.746759,37.169598,Kentucky
21053,Clinton,-85.135223,36.713992,Kentucky
21055,Crittenden,-88.095078,37.332496,Kentucky
21057,Cumberland,-85.38907900000001,36.778888,Kentucky
21059,Daviess,-87.094971,37.747732,Kentucky
21061,Edmonson,-86.255277,37.196775,Kentucky
21063,Elliott,-83.106515,38.122128000000004,Kentucky
21065,Estill,-83.988899,37.706277,Kentucky
21067,Fayette,-84.496639,38.020523,Kentucky
21069,Fleming,-83.708286,38.388567,Kentucky
21071,Floyd,-82.73852600000001,37.552299,Kentucky
21073,Franklin,-84.867592,38.196045,Kentucky
21075,Fulton,-89.03501700000001,36.538176,Kentucky
21077,Gallatin,-84.842979,38.764401,Kentucky
21079,Garrard,-84.57555699999999,37.649333,Kentucky
21081,Grant,-84.602069,38.688103999999996,Kentucky
21083,Graves,-88.650362,36.741213,Kentucky
21085,Grayson,-86.306723,37.46909,Kentucky
21087,Green,-85.538944,37.265597,Kentucky
21089,Greenup,-82.812206,38.555431,Kentucky
21091,Hancock,-86.804762,37.868017,Kentucky
21093,Hardin,-85.917039,37.746047,Kentucky
21095,Harlan,-83.232825,36.865625,Kentucky
21097,Harrison,-84.314823,38.415966,Kentucky
21099,Hart,-85.885789,37.278157,Kentucky
21101,Henderson,-87.56440500000001,37.818482,Kentucky
21103,Henry,-85.17949499999999,38.431903999999996,Kentucky
21105,Hickman,-88.959953,36.666725,Kentucky
21107,Hopkins,-87.523154,37.305865999999995,Kentucky
21109,Jackson,-83.99368,37.402802,Kentucky
21111,Jefferson,-85.69183199999999,38.201775,Kentucky
21113,Jessamine,-84.587046,37.884454999999996,Kentucky
21115,Johnson,-82.813992,37.829598,Kentucky
21117,Kenton,-84.548581,39.01319,Kentucky
21119,Knott,-82.940555,37.32759,Kentucky
21121,Knox,-83.915231,36.901584,Kentucky
21123,Larue,-85.72340799999999,37.544796000000005,Kentucky
21125,Laurel,-84.087834,37.091397,Kentucky
21127,Lawrence,-82.68164300000001,38.078995,Kentucky
21129,Lee,-83.70169200000001,37.591772999999996,Kentucky
21131,Leslie,-83.37635,37.115255,Kentucky
21133,Letcher,-82.80717299999999,37.14583,Kentucky
21135,Lewis,-83.347091,38.562531,Kentucky
21137,Lincoln,-84.669872,37.473121,Kentucky
21139,Livingston,-88.350899,37.135813,Kentucky
21141,Logan,-86.865922,36.85949,Kentucky
21143,Lyon,-88.079778,37.060704,Kentucky
21145,McCracken,-88.648273,37.048079,Kentucky
21147,McCreary,-84.446083,36.715761,Kentucky
21149,McLean,-87.21931500000001,37.513232,Kentucky
21151,Madison,-84.287451,37.70616,Kentucky
21153,Magoffin,-83.056234,37.729816,Kentucky
21155,Marion,-85.287195,37.569587,Kentucky
21157,Marshall,-88.339329,36.898302,Kentucky
21159,Martin,-82.51692,37.830545,Kentucky
21161,Mason,-83.788535,38.616398,Kentucky
21163,Meade,-86.132811,37.934298,Kentucky
21165,Menifee,-83.598399,37.939448999999996,Kentucky
21167,Mercer,-84.849691,37.785009,Kentucky
21169,Metcalfe,-85.641586,36.990815999999995,Kentucky
21171,Monroe,-85.72992099999999,36.708328,Kentucky
21173,Montgomery,-83.917436,38.035773,Kentucky
21175,Morgan,-83.266566,37.91274,Kentucky
21177,Muhlenberg,-87.14704,37.23809,Kentucky
21179,Nelson,-85.460371,37.818018,Kentucky
21181,Nicholas,-84.023779,38.327655,Kentucky
21183,Ohio,-86.864293,37.465058,Kentucky
21185,Oldham,-85.459538,38.372848,Kentucky
21187,Owen,-84.831925,38.531935,Kentucky
21189,Owsley,-83.684099,37.452096999999995,Kentucky
21191,Pendleton,-84.359742,38.715798,Kentucky
21193,Perry,-83.20106,37.257625,Kentucky
21195,Pike,-82.420659,37.463505,Kentucky
21197,Powell,-83.88113,37.852292999999996,Kentucky
21199,Pulaski,-84.614645,37.092819,Kentucky
21201,Robertson,-84.04884799999999,38.520826,Kentucky
21203,Rockcastle,-84.348396,37.381612,Kentucky
21205,Rowan,-83.442318,38.194615999999996,Kentucky
21207,Russell,-85.05932,37.029336,Kentucky
21209,Scott,-84.570575,38.231691,Kentucky
21211,Shelby,-85.230241,38.213513,Kentucky
21213,Simpson,-86.572109,36.733284999999995,Kentucky
21215,Spencer,-85.350915,38.059721,Kentucky
21217,Taylor,-85.343425,37.350402,Kentucky
21219,Todd,-87.171454,36.81176,Kentucky
21221,Trigg,-87.836202,36.847046999999996,Kentucky
21223,Trimble,-85.332526,38.620698,Kentucky
21225,Union,-87.926958,37.653315,Kentucky
21227,Warren,-86.434563,36.970396,Kentucky
21229,Washington,-85.190875,37.738655,Kentucky
21231,Wayne,-84.844614,36.837888,Kentucky
21233,Webster,-87.687044,37.499711,Kentucky
21235,Whitley,-84.14099499999999,36.809692,Kentucky
21237,Wolfe,-83.510902,37.740621999999995,Kentucky
21239,Woodford,-84.727271,38.050067999999996,Kentucky
22001,Acadia,-92.351799,30.278554999999997,Louisiana
22003,Allen,-92.774458,30.669387,Louisiana
22005,Ascension,-90.934028,30.248525,Louisiana
22007,Assumption,-91.06645,29.922957,Louisiana
22009,Avoyelles,-92.062566,31.053586,Louisiana
22011,Beauregard,-93.287136,30.733884999999997,Louisiana
22013,Bienville,-93.080261,32.388898,Louisiana
22015,Bossier,-93.656675,32.555696999999995,Louisiana
22017,Caddo,-93.800831,32.472074,Louisiana
22019,Calcasieu,-93.261485,30.227531,Louisiana
22021,Caldwell,-92.103757,32.078215,Louisiana
22023,Cameron,-93.212142,29.956692999999998,Louisiana
22025,Catahoula,-91.824471,31.696935999999997,Louisiana
22027,Claiborne,-93.03305999999999,32.833682,Louisiana
22029,Concordia,-91.545991,31.592783,Louisiana
22031,De Soto,-93.77673399999999,32.10498,Louisiana
22033,East Baton Rouge,-91.100943,30.462491999999997,Louisiana
22035,East Carroll,-91.19516,32.770972,Louisiana
22037,East Feliciana,-91.089224,30.826843,Louisiana
22039,Evangeline,-92.36223100000001,30.685722,Louisiana
22041,Franklin,-91.696268,32.143813,Louisiana
22043,Grant,-92.542816,31.534149,Louisiana
22045,Iberia,-91.810231,29.994199,Louisiana
22047,Iberville,-91.234302,30.272099,Louisiana
22049,Jackson,-92.646015,32.280659,Louisiana
22051,Jefferson,-90.153175,29.945261,Louisiana
22053,Jefferson Davis,-92.738028,30.240194,Louisiana
22055,Lafayette,-92.043759,30.205215000000003,Louisiana
22057,Lafourche,-90.615099,29.679993,Louisiana
22059,La Salle,-92.17255300000001,31.730558000000002,Louisiana
22061,Lincoln,-92.64793,32.549258,Louisiana
22063,Livingston,-90.840765,30.483388,Louisiana
22065,Madison,-91.196834,32.397648,Louisiana
22067,Morehouse,-91.886161,32.786393,Louisiana
22069,Natchitoches,-93.09736099999999,31.759482000000002,Louisiana
22071,Orleans,-90.05284,29.972699,Louisiana
22073,Ouachita,-92.129634,32.514346,Louisiana
22075,Plaquemines,-89.90075999999999,29.721759999999996,Louisiana
22077,Pointe Coupee,-91.50005999999999,30.67107,Louisiana
22079,Rapides,-92.457473,31.28458,Louisiana
22081,Red River,-93.307602,32.054629,Louisiana
22083,Richland,-91.71475600000001,32.441085,Louisiana
22085,Sabine,-93.566643,31.581882,Louisiana
22087,St. Bernard,-89.934425,29.928239,Louisiana
22089,St. Charles,-90.376773,29.939396999999996,Louisiana
22091,St. Helena,-90.69387900000001,30.788338,Louisiana
22093,St. James,-90.737207,30.020769,Louisiana
22095,St. John the Baptist,-90.513417,30.071496999999997,Louisiana
22097,St. Landry,-92.11131400000001,30.514028999999997,Louisiana
22099,St. Martin,-91.835169,30.229052000000003,Louisiana
22101,St. Mary,-91.344782,29.740593,Louisiana
22103,St. Tammany,-89.948329,30.383308000000003,Louisiana
22105,Tangipahoa,-90.455513,30.571610999999997,Louisiana
22107,Tensas,-91.297084,31.964792,Louisiana
22109,Terrebonne,-90.722239,29.592812,Louisiana
22111,Union,-92.40430699999999,32.794503999999996,Louisiana
22113,Vermilion,-92.16592299999999,29.993689,Louisiana
22115,Vernon,-93.245823,31.094949,Louisiana
22117,Washington,-89.996174,30.835918,Louisiana
22119,Webster,-93.340925,32.7001,Louisiana
22121,West Baton Rouge,-91.264463,30.443957,Louisiana
22123,West Carroll,-91.431802,32.816551000000004,Louisiana
22125,West Feliciana,-91.404737,30.893607,Louisiana
22127,Winn,-92.676588,31.929892,Louisiana
23001,Androscoggin,-70.201312,44.119069,Maine
23003,Aroostook,-68.086628,46.705048,Maine
23005,Cumberland,-70.305589,43.748088,Maine
23007,Franklin,-70.225634,44.70749,Maine
23009,Hancock,-68.467743,44.471475,Maine
23011,Kennebec,-69.749178,44.396102,Maine
23013,Knox,-69.162849,44.129785999999996,Maine
23015,Lincoln,-69.55505699999999,44.032332000000004,Maine
23017,Oxford,-70.61336,44.28237,Maine
23019,Penobscot,-68.79423,44.953036,Maine
23021,Piscataquis,-69.263375,45.242096999999994,Maine
23023,Sagadahoc,-69.869704,43.956202000000005,Maine
23025,Somerset,-69.685757,44.821921,Maine
23027,Waldo,-69.08655300000001,44.491137,Maine
23029,Washington,-67.464919,44.863591,Maine
23031,York,-70.640561,43.424108000000004,Maine
24001,Allegany,-78.822261,39.629197,Maryland
24003,Anne Arundel,-76.598917,39.067301,Maryland
24005,Baltimore,-76.620366,39.369252,Maryland
24009,Calvert,-76.54204200000001,38.548518,Maryland
24011,Caroline,-75.831491,38.874331,Maryland
24013,Carroll,-76.9931,39.527218,Maryland
24015,Cecil,-75.936585,39.613824,Maryland
24017,Charles,-76.953006,38.578559000000006,Maryland
24019,Dorchester,-76.00975799999999,38.570623,Maryland
24021,Frederick,-77.400231,39.432254,Maryland
24023,Garrett,-79.303138,39.512187,Maryland
24025,Harford,-76.310879,39.521376000000004,Maryland
24027,Howard,-76.856729,39.219271,Maryland
24029,Kent,-76.058525,39.245059999999995,Maryland
24031,Montgomery,-77.122862,39.086185,Maryland
24033,Prince George's,-76.88994699999999,38.908576000000004,Maryland
24035,Queen Anne's,-76.148099,39.022436,Maryland
24037,St. Mary's,-76.578864,38.307326,Maryland
24039,Somerset,-75.743445,38.132883,Maryland
24041,Talbot,-76.09812600000001,38.769665,Maryland
24043,Washington,-77.731386,39.617574,Maryland
24045,Wicomico,-75.59508199999999,38.371571,Maryland
24047,Worcester,-75.238169,38.301936,Maryland
24510,Baltimore,-76.619614,39.314892,Maryland
25001,Barnstable,-70.333968,41.690216,Massachusetts
25003,Berkshire,-73.216577,42.460781,Massachusetts
25005,Bristol,-71.108301,41.793219,Massachusetts
25007,Dukes,-70.602745,41.421286,Massachusetts
25009,Essex,-70.98781600000001,42.624790000000004,Massachusetts
25011,Franklin,-72.55870300000001,42.578289,Massachusetts
25013,Hampden,-72.575325,42.125927000000004,Massachusetts
25015,Hampshire,-72.57332199999999,42.312537,Massachusetts
25017,Middlesex,-71.255223,42.448546,Massachusetts
25019,Nantucket,-70.09111999999999,41.267912,Massachusetts
25021,Norfolk,-71.14756,42.202695,Massachusetts
25023,Plymouth,-70.853689,42.023962,Massachusetts
25025,Suffolk,-71.078632,42.334806,Massachusetts
25027,Worcester,-71.80532099999999,42.303703999999996,Massachusetts
26001,Alcona,-83.46759399999999,44.665115,Michigan
26003,Alger,-86.70040999999999,46.388671,Michigan
26005,Allegan,-85.874288,42.603137,Michigan
26007,Alpena,-83.504463,45.050953,Michigan
26009,Antrim,-85.19869200000001,44.978646999999995,Michigan
26011,Arenac,-83.88273000000001,44.044496,Michigan
26013,Baraga,-88.45425999999999,46.765021000000004,Michigan
26015,Barry,-85.34174399999999,42.614153,Michigan
26017,Bay,-83.92838499999999,43.630573999999996,Michigan
26019,Benzie,-86.016123,44.650382,Michigan
26021,Berrien,-86.407539,41.987514000000004,Michigan
26023,Branch,-85.031761,41.929764,Michigan
26025,Calhoun,-85.101835,42.289509,Michigan
26027,Cass,-86.040589,41.891974,Michigan
26029,Charlevoix,-85.115158,45.247029,Michigan
26031,Cheboygan,-84.518691,45.512741,Michigan
26033,Chippewa,-84.395364,46.367641,Michigan
26035,Clare,-84.826409,43.945731,Michigan
26037,Clinton,-84.55503,42.891278,Michigan
26039,Crawford,-84.666533,44.655060999999996,Michigan
26041,Delta,-87.066378,45.802381,Michigan
26043,Dickinson,-88.01380999999999,45.833651,Michigan
26045,Eaton,-84.74048499999999,42.64387,Michigan
26047,Emmet,-84.908934,45.433951,Michigan
26049,Genesee,-83.694732,43.006414,Michigan
26051,Gladwin,-84.437377,43.967071000000004,Michigan
26053,Gogebic,-89.978538,46.435975,Michigan
26055,Grand Traverse,-85.607171,44.710656,Michigan
26057,Gratiot,-84.629372,43.343314,Michigan
26059,Hillsdale,-84.603983,41.917025,Michigan
26061,Houghton,-88.54160999999999,47.12765,Michigan
26063,Huron,-83.06178299999999,43.833604,Michigan
26065,Ingham,-84.48781600000001,42.68888,Michigan
26067,Ionia,-85.085925,42.956879,Michigan
26069,Iosco,-83.53696,44.356582,Michigan
26071,Iron,-88.534279,46.098021,Michigan
26073,Isabella,-84.799832,43.607246999999994,Michigan
26075,Jackson,-84.406366,42.241313,Michigan
26077,Kalamazoo,-85.584896,42.26348,Michigan
26079,Kalkaska,-85.166074,44.720698,Michigan
26081,Kent,-85.626605,42.963793,Michigan
26083,Keweenaw,-88.30247,47.333639,Michigan
26085,Lake,-85.798358,43.95981,Michigan
26087,Lapeer,-83.250561,43.059695,Michigan
26089,Leelanau,-85.732585,44.909768,Michigan
26091,Lenawee,-84.052388,41.925187,Michigan
26093,Livingston,-83.857596,42.573054,Michigan
26095,Luce,-85.550951,46.334456,Michigan
26097,Mackinac,-84.879992,45.997904999999996,Michigan
26099,Macomb,-82.957388,42.586890000000004,Michigan
26101,Manistee,-86.188019,44.303916,Michigan
26103,Marquette,-87.494598,46.486961,Michigan
26105,Mason,-86.347842,43.974937,Michigan
26107,Mecosta,-85.38882199999999,43.653562,Michigan
26109,Menominee,-87.582124,45.341048,Michigan
26111,Midland,-84.298064,43.642775,Michigan
26113,Missaukee,-85.179438,44.305822,Michigan
26115,Monroe,-83.485782,41.900249,Michigan
26117,Montcalm,-85.180571,43.288474,Michigan
26119,Montmorency,-84.12303100000001,44.999428,Michigan
26121,Muskegon,-86.215441,43.244172999999996,Michigan
26123,Newaygo,-85.809843,43.46692,Michigan
26125,Oakland,-83.310386,42.587534999999995,Michigan
26127,Oceana,-86.304176,43.632703,Michigan
26129,Ogemaw,-84.123289,44.287569,Michigan
26131,Ontonagon,-89.2851,46.720246,Michigan
26133,Osceola,-85.35119499999999,43.965561,Michigan
26135,Oscoda,-84.147141,44.696783,Michigan
26137,Otsego,-84.66687900000001,45.006777,Michigan
26139,Ottawa,-86.021326,42.909362,Michigan
26141,Presque Isle,-83.87362900000001,45.356834,Michigan
26143,Roscommon,-84.649836,44.364864000000004,Michigan
26145,Saginaw,-83.993736,43.3982,Michigan
26147,St. Clair,-82.56438299999999,42.911355,Michigan
26149,St. Joseph,-85.52719,41.888048,Michigan
26151,Sanilac,-82.779371,43.364275,Michigan
26153,Schoolcraft,-86.22764699999999,46.004789,Michigan
26155,Shiawassee,-84.147237,42.942805,Michigan
26157,Tuscola,-83.43571800000001,43.429727,Michigan
26159,Van Buren,-86.00994,42.260692,Michigan
26161,Washtenaw,-83.727147,42.256943,Michigan
26163,Wayne,-83.217933,42.332609999999995,Michigan
26165,Wexford,-85.485562,44.307684,Michigan
27001,Aitkin,-93.52436800000001,46.570765,Minnesota
27003,Anoka,-93.27024499999999,45.195145000000004,Minnesota
27005,Becker,-95.776251,46.849159,Minnesota
27007,Beltrami,-94.86303199999999,47.591009,Minnesota
27009,Benton,-94.10248399999999,45.633538,Minnesota
27011,Big Stone,-96.44322199999999,45.400021,Minnesota
27013,Blue Earth,-93.998839,44.129816,Minnesota
27015,Brown,-94.599226,44.284244,Minnesota
27017,Carlton,-92.536239,46.642726,Minnesota
27019,Carver,-93.679956,44.83804,Minnesota
27021,Cass,-94.415763,46.814565,Minnesota
27023,Chippewa,-95.620749,44.960561,Minnesota
27025,Chisago,-92.924051,45.453007,Minnesota
27027,Clay,-96.672421,46.857997999999995,Minnesota
27029,Clearwater,-95.388249,47.561894,Minnesota
27031,Cook,-90.337909,47.783499,Minnesota
27033,Cottonwood,-95.119501,43.94151,Minnesota
27035,Crow Wing,-94.158899,46.430372,Minnesota
27037,Dakota,-93.151767,44.765954,Minnesota
27039,Dodge,-92.808798,44.02998,Minnesota
27041,Douglas,-95.39199,45.909027,Minnesota
27043,Faribault,-93.957933,43.680245,Minnesota
27045,Fillmore,-92.082719,43.692687,Minnesota
27047,Freeborn,-93.36179399999999,43.662563,Minnesota
27049,Goodhue,-92.667524,44.449071999999994,Minnesota
27051,Grant,-95.936611,45.943212,Minnesota
27053,Hennepin,-93.36119000000001,44.974633000000004,Minnesota
27055,Houston,-91.440063,43.718927,Minnesota
27057,Hubbard,-94.93415300000001,47.057887,Minnesota
27059,Isanti,-93.26146800000001,45.544297,Minnesota
27061,Itasca,-93.52053199999999,47.315978,Minnesota
27063,Jackson,-95.11255799999999,43.665988,Minnesota
27065,Kanabec,-93.299412,45.886315,Minnesota
27067,Kandiyohi,-95.016796,45.15505,Minnesota
27069,Kittson,-96.78110799999999,48.729535999999996,Minnesota
27071,Koochiching,-93.48572800000001,48.509405,Minnesota
27073,Lac qui Parle,-96.133339,44.982243,Minnesota
27075,Lake,-91.55743000000001,47.180205,Minnesota
27077,Lake of the Woods,-94.745194,48.765863,Minnesota
27079,Le Sueur,-93.717527,44.39373,Minnesota
27081,Lincoln,-96.25353199999999,44.375240999999995,Minnesota
27083,Lyon,-95.795395,44.428427,Minnesota
27085,McLeod,-94.264668,44.859713,Minnesota
27087,Mahnomen,-95.840755,47.296073,Minnesota
27089,Marshall,-96.532098,48.310109000000004,Minnesota
27091,Martin,-94.511487,43.665285,Minnesota
27093,Meeker,-94.48298299999999,45.136368,Minnesota
27095,Mille Lacs,-93.624487,45.794230999999996,Minnesota
27097,Morrison,-94.327628,45.983428,Minnesota
27099,Mower,-92.898185,43.665099,Minnesota
27101,Murray,-95.74103000000001,43.98645,Minnesota
27103,Nicollet,-94.06079,44.265357,Minnesota
27105,Nobles,-95.667405,43.636327,Minnesota
27107,Norman,-96.477907,47.307989,Minnesota
27109,Olmsted,-92.473176,44.023967,Minnesota
27111,Otter Tail,-95.793598,46.405065,Minnesota
27113,Pennington,-96.148403,48.102255,Minnesota
27115,Pine,-92.892705,46.033409999999996,Minnesota
27117,Pipestone,-96.270609,43.981472,Minnesota
27119,Polk,-96.550934,47.780427,Minnesota
27121,Pope,-95.43713000000001,45.629871,Minnesota
27123,Ramsey,-93.106321,44.993146,Minnesota
27125,Red Lake,-96.135646,47.876104,Minnesota
27127,Redwood,-95.19515799999999,44.43888,Minnesota
27129,Renville,-94.937875,44.721973999999996,Minnesota
27131,Rice,-93.260361,44.370591999999995,Minnesota
27133,Rock,-96.238816,43.648101000000004,Minnesota
27135,Roseau,-95.648394,48.821304,Minnesota
27137,St. Louis,-92.311226,47.085203,Minnesota
27139,Scott,-93.46789100000001,44.713131,Minnesota
27141,Sherburne,-93.721897,45.404646,Minnesota
27143,Sibley,-94.168405,44.582707,Minnesota
27145,Stearns,-94.360801,45.557829999999996,Minnesota
27147,Steele,-93.21441300000001,44.064305,Minnesota
27149,Stevens,-95.92602600000001,45.580687,Minnesota
27151,Swift,-95.64442,45.274076,Minnesota
27153,Todd,-94.886512,46.066924,Minnesota
27155,Traverse,-96.54916999999999,45.751079,Minnesota
27157,Wabasha,-92.221086,44.297858000000005,Minnesota
27159,Wadena,-95.04137,46.524392999999996,Minnesota
27161,Waseca,-93.549998,44.061,Minnesota
27163,Washington,-92.920897,44.988623,Minnesota
27165,Watonwan,-94.583786,43.993423,Minnesota
27167,Wilkin,-96.52968299999999,46.316536,Minnesota
27169,Winona,-91.714435,44.023706,Minnesota
27171,Wright,-93.828888,45.197631,Minnesota
27173,Yellow Medicine,-95.825953,44.737553000000005,Minnesota
28001,Adams,-91.352164,31.547641,Mississippi
28003,Alcorn,-88.531068,34.908784999999995,Mississippi
28005,Amite,-90.817613,31.180019,Mississippi
28007,Attala,-89.58685200000001,33.066234,Mississippi
28009,Benton,-89.20418599999999,34.810109999999995,Mississippi
28011,Bolivar,-90.775341,33.77228,Mississippi
28013,Calhoun,-89.306905,33.929772,Mississippi
28015,Carroll,-89.918375,33.458389000000004,Mississippi
28017,Chickasaw,-88.931815,33.932227000000005,Mississippi
28019,Choctaw,-89.236281,33.342151,Mississippi
28021,Claiborne,-90.954141,31.935954,Mississippi
28023,Clarke,-88.730627,32.062753,Mississippi
28025,Clay,-88.69246,33.624590000000005,Mississippi
28027,Coahoma,-90.569863,34.222427,Mississippi
28029,Copiah,-90.3792,31.889652,Mississippi
28031,Covington,-89.54871800000001,31.637590999999997,Mississippi
28033,DeSoto,-89.956695,34.9304,Mississippi
28035,Forrest,-89.287875,31.309039000000002,Mississippi
28037,Franklin,-90.872761,31.473218,Mississippi
28039,George,-88.592895,30.870535999999998,Mississippi
28041,Greene,-88.626139,31.193014,Mississippi
28043,Grenada,-89.802799,33.768122,Mississippi
28045,Hancock,-89.405662,30.379392,Mississippi
28047,Harrison,-89.063834,30.432955,Mississippi
28049,Hinds,-90.255669,32.303868,Mississippi
28051,Holmes,-90.0284,33.090289,Mississippi
28053,Humphreys,-90.519097,33.161583,Mississippi
28055,Issaquena,-91.006351,32.867278999999996,Mississippi
28057,Itawamba,-88.40269,34.292221000000005,Mississippi
28059,Jackson,-88.660684,30.444370000000003,Mississippi
28061,Jasper,-89.144535,31.966737,Mississippi
28063,Jefferson,-91.055531,31.714659,Mississippi
28065,Jefferson Davis,-89.814551,31.574917,Mississippi
28067,Jones,-89.16512,31.668673,Mississippi
28069,Kemper,-88.677908,32.759966999999996,Mississippi
28071,Lafayette,-89.526937,34.361506,Mississippi
28073,Lamar,-89.438738,31.264156,Mississippi
28075,Lauderdale,-88.691796,32.400679,Mississippi
28077,Lawrence,-90.109256,31.555383000000003,Mississippi
28079,Leake,-89.504736,32.725455,Mississippi
28081,Lee,-88.702989,34.274735,Mississippi
28083,Leflore,-90.209073,33.513076,Mississippi
28085,Lincoln,-90.456276,31.550890999999996,Mississippi
28087,Lowndes,-88.392697,33.515351,Mississippi
28089,Madison,-90.098347,32.510711,Mississippi
28091,Marion,-89.82969399999999,31.244446999999997,Mississippi
28093,Marshall,-89.542843,34.815764,Mississippi
28095,Monroe,-88.498114,33.925912,Mississippi
28097,Montgomery,-89.682988,33.496574,Mississippi
28099,Neshoba,-89.117671,32.754204,Mississippi
28101,Newton,-89.128073,32.412040000000005,Mississippi
28103,Noxubee,-88.54983,33.13112,Mississippi
28105,Oktibbeha,-88.828709,33.449231,Mississippi
28107,Panola,-89.938355,34.350009,Mississippi
28109,Pearl River,-89.63173,30.641968,Mississippi
28111,Perry,-88.991988,31.262821000000002,Mississippi
28113,Pike,-90.436396,31.216057,Mississippi
28115,Pontotoc,-89.011424,34.252502,Mississippi
28117,Prentiss,-88.552652,34.631502000000005,Mississippi
28119,Quitman,-90.262854,34.27262,Mississippi
28121,Rankin,-90.033002,32.279373,Mississippi
28123,Scott,-89.529197,32.401463,Mississippi
28125,Sharkey,-90.859408,32.924745,Mississippi
28127,Simpson,-89.853775,31.916008,Mississippi
28129,Smith,-89.506985,31.971849,Mississippi
28131,Stone,-89.136496,30.809010999999998,Mississippi
28133,Sunflower,-90.584058,33.594122999999996,Mississippi
28135,Tallahatchie,-90.197125,33.983144,Mississippi
28137,Tate,-89.948155,34.64608,Mississippi
28139,Tippah,-88.925793,34.767895,Mississippi
28141,Tishomingo,-88.22836600000001,34.723482000000004,Mississippi
28143,Tunica,-90.348008,34.709638,Mississippi
28145,Union,-89.007903,34.484262,Mississippi
28147,Walthall,-90.12138900000001,31.151621999999996,Mississippi
28149,Warren,-90.84524499999999,32.325884,Mississippi
28151,Washington,-91.010964,33.37108,Mississippi
28153,Wayne,-88.65932099999999,31.650101,Mississippi
28155,Webster,-89.22617199999999,33.582221000000004,Mississippi
28157,Wilkinson,-91.23826899999999,31.121531,Mississippi
28159,Winston,-89.042843,33.084925,Mississippi
28161,Yalobusha,-89.693557,34.080595,Mississippi
28163,Yazoo,-90.380241,32.82849,Mississippi
29001,Adair,-92.58244599999999,40.19566,Missouri
29003,Andrew,-94.81829300000001,39.922565000000006,Missouri
29005,Atchison,-95.437688,40.421105,Missouri
29007,Audrain,-91.82107099999999,39.205358000000004,Missouri
29009,Barry,-93.86274399999999,36.735065000000006,Missouri
29011,Barton,-94.308903,37.495228000000004,Missouri
29013,Bates,-94.36232199999999,38.276163000000004,Missouri
29015,Benton,-93.308948,38.302689,Missouri
29017,Bollinger,-89.998323,37.338242,Missouri
29019,Boone,-92.321523,38.959866,Missouri
29021,Buchanan,-94.821954,39.750602,Missouri
29023,Butler,-90.413589,36.75379,Missouri
29025,Caldwell,-93.994816,39.664765,Missouri
29027,Callaway,-91.993447,38.802239,Missouri
29029,Camden,-92.749496,38.072828,Missouri
29031,Cape Girardeau,-89.60625,37.353894,Missouri
29033,Carroll,-93.495631,39.410154999999996,Missouri
29035,Carter,-90.897277,36.949427,Missouri
29037,Cass,-94.423526,38.746895,Missouri
29039,Cedar,-93.895022,37.767996000000004,Missouri
29041,Chariton,-92.934967,39.486626,Missouri
29043,Christian,-93.262511,37.025687,Missouri
29045,Clark,-91.70473199999999,40.413068,Missouri
29047,Clay,-94.49391999999999,39.251395,Missouri
29049,Clinton,-94.370131,39.602092999999996,Missouri
29051,Cole,-92.218634,38.552393,Missouri
29053,Cooper,-92.772604,38.909615,Missouri
29055,Crawford,-91.322802,38.059819,Missouri
29057,Dade,-93.829944,37.415613,Missouri
29059,Dallas,-93.067095,37.643825,Missouri
29061,Daviess,-93.98325799999999,39.942683,Missouri
29063,DeKalb,-94.34050400000001,39.81961,Missouri
29065,Dent,-91.54213100000001,37.630684,Missouri
29067,Douglas,-92.588247,36.939746,Missouri
29069,Dunklin,-90.059209,36.326743,Missouri
29071,Franklin,-90.999826,38.432966,Missouri
29073,Gasconade,-91.491625,38.45363,Missouri
29075,Gentry,-94.439143,40.199987,Missouri
29077,Greene,-93.3083,37.193837,Missouri
29079,Grundy,-93.595469,40.091968,Missouri
29081,Harrison,-94.000823,40.313851,Missouri
29083,Henry,-93.736873,38.394758,Missouri
29085,Hickory,-93.330251,37.910659,Missouri
29087,Holt,-95.199972,40.092393,Missouri
29089,Howard,-92.705762,39.139325,Missouri
29091,Howell,-91.873823,36.793133000000005,Missouri
29093,Iron,-90.71159899999999,37.571851,Missouri
29095,Jackson,-94.446137,39.010332,Missouri
29097,Jasper,-94.443436,37.128993,Missouri
29099,Jefferson,-90.47574399999999,38.340593,Missouri
29101,Johnson,-93.770312,38.757209,Missouri
29103,Knox,-92.150669,40.151668,Missouri
29105,Laclede,-92.65456,37.669645,Missouri
29107,Lafayette,-93.840082,39.056329,Missouri
29109,Lawrence,-93.797074,37.035398,Missouri
29111,Lewis,-91.64908199999999,40.085505,Missouri
29113,Lincoln,-90.928671,39.003625,Missouri
29115,Linn,-93.065191,39.796774,Missouri
29117,Livingston,-93.554324,39.795916,Missouri
29119,McDonald,-94.39808000000001,36.618064000000004,Missouri
29121,Macon,-92.51033000000001,39.798522,Missouri
29123,Madison,-90.300055,37.535795,Missouri
29125,Maries,-91.878062,38.171917,Missouri
29127,Marion,-91.45566099999999,39.740805,Missouri
29129,Mercer,-93.575859,40.418591,Missouri
29131,Miller,-92.507085,38.247837,Missouri
29133,Mississippi,-89.365459,36.857051,Missouri
29135,Moniteau,-92.616373,38.628938,Missouri
29137,Monroe,-91.973958,39.520553,Missouri
29139,Montgomery,-91.468473,38.950802,Missouri
29141,Morgan,-92.85030400000001,38.381506,Missouri
29143,New Madrid,-89.65871,36.605307,Missouri
29145,Newton,-94.41138000000001,36.921797999999995,Missouri
29147,Nodaway,-94.86791600000001,40.352748999999996,Missouri
29149,Oregon,-91.464771,36.618128999999996,Missouri
29151,Osage,-91.883136,38.453819,Missouri
29153,Ozark,-92.424289,36.623090000000005,Missouri
29155,Pemiscot,-89.748715,36.181794000000004,Missouri
29157,Perry,-89.857097,37.713671999999995,Missouri
29159,Pettis,-93.246549,38.702201,Missouri
29161,Phelps,-91.748715,37.942882,Missouri
29163,Pike,-91.156139,39.363535,Missouri
29165,Platte,-94.684698,39.262166,Missouri
29167,Polk,-93.404415,37.601813,Missouri
29169,Pulaski,-92.1773,37.824257,Missouri
29171,Putnam,-92.97926899999999,40.480841999999996,Missouri
29173,Ralls,-91.468633,39.57958,Missouri
29175,Randolph,-92.45193499999999,39.412906,Missouri
29177,Ray,-94.06127,39.335640999999995,Missouri
29179,Reynolds,-90.97298599999999,37.336586,Missouri
29181,Ripley,-90.791802,36.627212,Missouri
29183,St. Charles,-90.659755,38.776604,Missouri
29185,St. Clair,-93.765606,38.056009,Missouri
29186,Ste. Genevieve,-90.168495,37.939468,Missouri
29187,St. Francois,-90.492254,37.835573,Missouri
29189,St. Louis,-90.386218,38.647121000000006,Missouri
29195,Saline,-93.204898,39.111933,Missouri
29197,Schuyler,-92.521984,40.461815,Missouri
29199,Scotland,-92.146652,40.448001,Missouri
29201,Scott,-89.577839,37.014497999999996,Missouri
29203,Shannon,-91.429472,37.069627000000004,Missouri
29205,Shelby,-92.077052,39.761774,Missouri
29207,Stoddard,-89.969639,36.850777,Missouri
29209,Stone,-93.43843299999999,36.717605,Missouri
29211,Sullivan,-93.103734,40.217733,Missouri
29213,Taney,-93.18997900000001,36.656706,Missouri
29215,Texas,-91.968488,37.328457,Missouri
29217,Vernon,-94.340355,37.835598,Missouri
29219,Warren,-91.10358000000001,38.788663,Missouri
29221,Washington,-90.785675,37.953146999999994,Missouri
29223,Wayne,-90.512622,37.107087,Missouri
29225,Webster,-92.907363,37.263337,Missouri
29227,Worth,-94.438797,40.482258,Missouri
29229,Wright,-92.429174,37.192204,Missouri
29510,St. Louis,-90.25299100000001,38.623609,Missouri
30001,Beaverhead,-112.69618600000001,45.221056,Montana
30003,Big Horn,-107.502778,45.565831,Montana
30005,Blaine,-108.89908600000001,48.441261,Montana
30007,Broadwater,-111.535578,46.302846,Montana
30009,Carbon,-109.084478,45.321484000000005,Montana
30011,Carter,-104.523733,45.679127,Montana
30013,Cascade,-111.30625800000001,47.491839,Montana
30015,Chouteau,-110.403274,47.956365999999996,Montana
30017,Custer,-105.817008,46.403369,Montana
30019,Daniels,-105.43032,48.783415999999995,Montana
30021,Dawson,-104.750559,47.134482,Montana
30023,Deer Lodge,-112.95408700000002,46.137755,Montana
30025,Fallon,-104.309448,46.358863,Montana
30027,Fergus,-109.41709499999999,47.097547999999996,Montana
30029,Flathead,-114.279524,48.247203999999996,Montana
30031,Gallatin,-111.12828300000001,45.682805,Montana
30033,Garfield,-106.97783000000001,47.299772999999995,Montana
30035,Glacier,-112.79915600000001,48.602920000000005,Montana
30037,Golden Valley,-109.13969499999999,46.287061,Montana
30039,Granite,-113.293879,46.448832,Montana
30041,Hill,-109.762794,48.515786,Montana
30043,Jefferson,-112.053101,46.254092,Montana
30045,Judith Basin,-110.17744499999999,47.102395,Montana
30047,Lake,-114.120003,47.601938,Montana
30049,Lewis and Clark,-112.021955,46.64477,Montana
30051,Liberty,-111.00028300000001,48.563509,Montana
30053,Lincoln,-115.43767700000001,48.545504,Montana
30055,McCone,-105.644548,47.561984,Montana
30057,Madison,-111.94921699999999,45.435990000000004,Montana
30059,Meagher,-110.875445,46.526827000000004,Montana
30061,Mineral,-114.899744,47.185565999999994,Montana
30063,Missoula,-114.019007,46.875471999999995,Montana
30065,Musselshell,-108.490425,46.417552,Montana
30067,Park,-110.599015,45.59709,Montana
30069,Petroleum,-108.29671599999999,47.012440999999995,Montana
30071,Phillips,-107.857685,48.374315,Montana
30073,Pondera,-112.14458,48.210126,Montana
30075,Powder River,-105.535004,45.440737,Montana
30077,Powell,-112.760484,46.449212,Montana
30079,Prairie,-105.269953,46.807846999999995,Montana
30081,Ravalli,-114.117267,46.352649,Montana
30083,Richland,-104.20390400000001,47.718571999999995,Montana
30085,Roosevelt,-105.24766000000001,48.132540999999996,Montana
30087,Rosebud,-106.611337,45.907996000000004,Montana
30089,Sanders,-115.177085,47.636131,Montana
30091,Sheridan,-104.499376,48.737464,Montana
30093,Silver Bow,-112.52435600000001,45.98796,Montana
30095,Stillwater,-109.24949299999999,45.613806,Montana
30097,Sweet Grass,-109.91591899999999,45.830248,Montana
30099,Teton,-112.054612,47.771875,Montana
30101,Toole,-111.85338,48.585262,Montana
30103,Treasure,-107.24100200000001,46.255884,Montana
30105,Valley,-106.54614299999999,48.233939,Montana
30107,Wheatland,-109.84409099999999,46.459736,Montana
30109,Wibaux,-104.196159,46.969011,Montana
30111,Yellowstone,-108.53941699999999,45.791309000000005,Montana
31001,Adams,-98.414536,40.583763,Nebraska
31003,Antelope,-98.05683,42.149596,Nebraska
31005,Arthur,-101.673813,41.569808,Nebraska
31007,Banner,-103.702088,41.557925,Nebraska
31009,Blaine,-100.007203,41.901108,Nebraska
31011,Boone,-98.01635999999999,41.68018,Nebraska
31013,Box Butte,-102.903704,42.135040000000004,Nebraska
31015,Boyd,-98.730816,42.891084,Nebraska
31017,Brown,-99.852141,42.538835999999996,Nebraska
31019,Buffalo,-99.07016,40.737667,Nebraska
31021,Burt,-96.34254,41.845797,Nebraska
31023,Butler,-97.141234,41.248948999999996,Nebraska
31025,Cass,-96.062535,40.946526,Nebraska
31027,Cedar,-97.25486,42.576273,Nebraska
31029,Chase,-101.61976700000001,40.500254,Nebraska
31031,Cherry,-100.754886,42.784561,Nebraska
31033,Cheyenne,-102.982623,41.166245,Nebraska
31035,Clay,-98.029666,40.545465,Nebraska
31037,Colfax,-97.076554,41.517571000000004,Nebraska
31039,Cuming,-96.759175,41.897578,Nebraska
31041,Custer,-99.672832,41.401092999999996,Nebraska
31043,Dakota,-96.441515,42.445678,Nebraska
31045,Dawes,-103.066266,42.785306,Nebraska
31047,Dawson,-99.858944,40.828531,Nebraska
31049,Deuel,-102.345568,41.088793,Nebraska
31051,Dixon,-96.83000200000001,42.438517,Nebraska
31053,Dodge,-96.53063,41.473485,Nebraska
31055,Douglas,-96.061471,41.25991,Nebraska
31057,Dundy,-101.601584,40.093189,Nebraska
31059,Fillmore,-97.578024,40.540682000000004,Nebraska
31061,Franklin,-98.946914,40.187621,Nebraska
31063,Frontier,-100.40419399999999,40.607972,Nebraska
31065,Furnas,-99.925599,40.248006,Nebraska
31067,Gage,-96.714139,40.274482,Nebraska
31069,Garden,-102.32076500000001,41.422768,Nebraska
31071,Garfield,-99.107238,41.800943,Nebraska
31073,Gosper,-99.830993,40.592124,Nebraska
31075,Grant,-101.731402,41.984367999999996,Nebraska
31077,Greeley,-98.497703,41.556319,Nebraska
31079,Hall,-98.377535,40.915597,Nebraska
31081,Hamilton,-98.021089,40.878695,Nebraska
31083,Harlan,-99.40221,40.145693,Nebraska
31085,Hayes,-101.058515,40.49563,Nebraska
31087,Hitchcock,-101.006845,40.211960999999995,Nebraska
31089,Holt,-98.742988,42.4584,Nebraska
31091,Hooker,-101.062839,42.016040999999994,Nebraska
31093,Howard,-98.493475,41.189549,Nebraska
31095,Jefferson,-97.140354,40.164028,Nebraska
31097,Johnson,-96.228933,40.401369,Nebraska
31099,Kearney,-98.992742,40.506264,Nebraska
31101,Keith,-101.696492,41.141877,Nebraska
31103,Keya Paha,-99.70360699999999,42.868344,Nebraska
31105,Kimball,-103.66071099999999,41.232889,Nebraska
31107,Knox,-97.786962,42.61911,Nebraska
31109,Lancaster,-96.673551,40.801058000000005,Nebraska
31111,Lincoln,-100.78923,41.119634999999995,Nebraska
31113,Logan,-100.500737,41.484178,Nebraska
31115,Loup,-99.402546,41.816483000000005,Nebraska
31117,McPherson,-100.986347,41.57331,Nebraska
31119,Madison,-97.461692,42.003908,Nebraska
31121,Merrick,-98.039353,41.1312,Nebraska
31123,Morrill,-103.159224,41.707122999999996,Nebraska
31125,Nance,-97.895028,41.403828999999995,Nebraska
31127,Nemaha,-95.836309,40.403957,Nebraska
31129,Nuckolls,-98.06110799999999,40.115021,Nebraska
31131,Otoe,-96.02987399999999,40.669495,Nebraska
31133,Pawnee,-96.18405899999999,40.134921000000006,Nebraska
31135,Perkins,-101.672531,40.847278,Nebraska
31137,Phelps,-99.406756,40.468151,Nebraska
31139,Pierce,-97.591986,42.262663,Nebraska
31141,Platte,-97.38740899999999,41.469013000000004,Nebraska
31143,Polk,-97.555813,41.174759,Nebraska
31145,Red Willow,-100.587807,40.205475,Nebraska
31147,Richardson,-95.673464,40.099947,Nebraska
31149,Rock,-99.495235,42.536442,Nebraska
31151,Saline,-97.02001,40.578252,Nebraska
31153,Sarpy,-96.03389200000001,41.153107,Nebraska
31155,Saunders,-96.571016,41.199571,Nebraska
31157,Scotts Bluff,-103.68038,41.865018,Nebraska
31159,Seward,-97.106037,40.873593,Nebraska
31161,Sheridan,-102.398893,42.699304999999995,Nebraska
31163,Sherman,-98.97165,41.223634000000004,Nebraska
31165,Sioux,-103.825082,42.379652,Nebraska
31167,Stanton,-97.251636,41.985653000000006,Nebraska
31169,Thayer,-97.62535,40.179229,Nebraska
31171,Thomas,-100.546734,41.966823,Nebraska
31173,Thurston,-96.515688,42.159409000000004,Nebraska
31175,Valley,-98.947749,41.573370000000004,Nebraska
31177,Washington,-96.15829599999999,41.507053000000006,Nebraska
31179,Wayne,-97.063062,42.22193,Nebraska
31181,Webster,-98.485192,40.200266,Nebraska
31183,Wheeler,-98.543873,41.880573999999996,Nebraska
31185,York,-97.60543100000001,40.864374,Nebraska
32001,Churchill,-118.79566100000001,39.473584,Nevada
32003,Clark,-115.14993999999999,36.143366,Nevada
32005,Douglas,-119.755928,38.956913,Nevada
32007,Elko,-115.51859499999999,40.870907,Nevada
32009,Esmeralda,-117.677756,37.708803,Nevada
32011,Eureka,-116.14768600000001,39.866898,Nevada
32013,Humboldt,-117.74505500000001,41.034176,Nevada
32015,Lander,-116.94321000000001,40.520911,Nevada
32017,Lincoln,-114.644504,37.6903,Nevada
32019,Lyon,-119.32513300000001,39.34878,Nevada
32021,Mineral,-118.63869299999999,38.590037,Nevada
32023,Nye,-116.165792,36.468656,Nevada
32027,Pershing,-118.294549,40.34344,Nevada
32029,Storey,-119.62413799999999,39.389364,Nevada
32031,Washoe,-119.795493,39.535558,Nevada
32033,White Pine,-114.862381,39.273238,Nevada
32510,Carson City,-119.75371100000001,39.166134,Nevada
33001,Belknap,-71.44059,43.5174,New Hampshire
33003,Carroll,-71.166412,43.810972,New Hampshire
33005,Cheshire,-72.262715,42.898264000000005,New Hampshire
33007,Coos,-71.36275,44.550062,New Hampshire
33009,Grafton,-71.95326800000001,43.838874,New Hampshire
33011,Hillsborough,-71.532928,42.879889,New Hampshire
33013,Merrimack,-71.586214,43.246442,New Hampshire
33015,Rockingham,-71.10426600000001,42.936726,New Hampshire
33017,Strafford,-70.954943,43.247646,New Hampshire
33019,Sullivan,-72.259352,43.367422,New Hampshire
34001,Atlantic,-74.58345200000001,39.427562,New Jersey
34003,Bergen,-74.057383,40.918799,New Jersey
34005,Burlington,-74.83426899999999,39.982667,New Jersey
34007,Camden,-75.027836,39.86401,New Jersey
34009,Cape May,-74.807133,39.095952000000004,New Jersey
34011,Cumberland,-75.087728,39.428284000000005,New Jersey
34013,Essex,-74.216402,40.768705,New Jersey
34015,Gloucester,-75.12745600000001,39.749187,New Jersey
34017,Hudson,-74.061278,40.742925,New Jersey
34019,Hunterdon,-74.896782,40.572183,New Jersey
34021,Mercer,-74.70034,40.255565999999995,New Jersey
34023,Middlesex,-74.38792099999999,40.485529,New Jersey
34025,Monmouth,-74.14773000000001,40.291301000000004,New Jersey
34027,Morris,-74.501661,40.859552,New Jersey
34029,Ocean,-74.21461,39.973657,New Jersey
34031,Passaic,-74.191473,40.925360999999995,New Jersey
34033,Salem,-75.37658,39.625938,New Jersey
34035,Somerset,-74.57879799999999,40.561176,New Jersey
34037,Sussex,-74.654037,41.091219,New Jersey
34039,Union,-74.294239,40.659609,New Jersey
34041,Warren,-75.016426,40.795162,New Jersey
35001,Bernalillo,-106.61603899999999,35.107877,New Mexico
35003,Catron,-108.54920700000001,33.928093,New Mexico
35005,Chaves,-104.51261,33.364652,New Mexico
35006,Cibola,-107.80460900000001,35.113977,New Mexico
35007,Colfax,-104.643736,36.702618,New Mexico
35009,Curry,-103.21570799999999,34.420099,New Mexico
35011,De Baca,-104.257875,34.465462,New Mexico
35013,Doa Ana,-106.728697,32.247294000000004,New Mexico
35015,Eddy,-104.291387,32.547601,New Mexico
35017,Grant,-108.24269299999999,32.780454999999996,New Mexico
35019,Guadalupe,-104.792489,34.930036,New Mexico
35021,Harding,-103.984528,35.861022999999996,New Mexico
35023,Hidalgo,-108.76673999999998,32.275633,New Mexico
35025,Lea,-103.193711,32.753116999999996,New Mexico
35027,Lincoln,-105.631173,33.420964,New Mexico
35028,Los Alamos,-106.270283,35.868766,New Mexico
35029,Luna,-107.740412,32.217487,New Mexico
35031,McKinley,-108.63423,35.511503999999995,New Mexico
35033,Mora,-105.241049,35.99928,New Mexico
35035,Otero,-105.98984399999999,32.806642,New Mexico
35037,Quay,-103.65613,35.180626000000004,New Mexico
35039,Rio Arriba,-106.204801,36.201002,New Mexico
35041,Roosevelt,-103.348217,34.167549,New Mexico
35043,Sandoval,-106.64926000000001,35.328604999999996,New Mexico
35045,San Juan,-108.220647,36.721940000000004,New Mexico
35047,San Miguel,-105.309684,35.573296,New Mexico
35049,Santa Fe,-106.004953,35.630805,New Mexico
35051,Sierra,-107.277841,33.109272999999995,New Mexico
35053,Socorro,-106.957793,34.153828000000004,New Mexico
35055,Taos,-105.609376,36.433446999999994,New Mexico
35057,Torrance,-106.10099699999999,34.867124,New Mexico
35059,Union,-103.262118,36.455575,New Mexico
35061,Valencia,-106.72254199999999,34.752148999999996,New Mexico
36001,Albany,-73.81304,42.678976,New York
36003,Allegany,-78.019297,42.228245,New York
36005,Bronx,-73.882363,40.849354,New York
36007,Broome,-75.93424499999999,42.121306,New York
36009,Cattaraugus,-78.607656,42.224267,New York
36011,Cayuga,-76.56004399999999,42.93537,New York
36013,Chautauqua,-79.31467099999999,42.246256,New York
36015,Chemung,-76.813046,42.118262,New York
36017,Chenango,-75.570326,42.481195,New York
36019,Clinton,-73.545325,44.730039,New York
36021,Columbia,-73.681049,42.273336,New York
36023,Cortland,-76.145474,42.59613,New York
36025,Delaware,-74.993985,42.244535,New York
36027,Dutchess,-73.839417,41.681015,New York
36029,Erie,-78.792596,42.889478000000004,New York
36031,Essex,-73.68990600000001,44.174474,New York
36033,Franklin,-74.344365,44.712835,New York
36035,Fulton,-74.33034599999999,43.059172,New York
36037,Genesee,-78.17309499999999,42.999625,New York
36039,Greene,-73.97587299999999,42.299303,New York
36041,Hamilton,-74.385121,43.612034,New York
36043,Herkimer,-74.99503399999999,43.070536,New York
36045,Jefferson,-75.89664,44.019125,New York
36047,Kings,-73.95481099999999,40.650523,New York
36049,Lewis,-75.449321,43.789217,New York
36051,Livingston,-77.7642,42.766358000000004,New York
36053,Madison,-75.717386,42.984471,New York
36055,Monroe,-77.619988,43.161503,New York
36057,Montgomery,-74.343088,42.933549,New York
36059,Nassau,-73.602242,40.716587,New York
36061,New York,-73.966303,40.777958,New York
36063,Niagara,-78.852109,43.134704,New York
36065,Oneida,-75.35910600000001,43.147453999999996,New York
36067,Onondaga,-76.16744200000001,43.067188,New York
36069,Ontario,-77.260129,42.899374,New York
36071,Orange,-74.243059,41.422034000000004,New York
36073,Orleans,-78.223294,43.248317,New York
36075,Oswego,-76.31314499999999,43.391821,New York
36077,Otsego,-75.060062,42.563531,New York
36079,Putnam,-73.717247,41.411282,New York
36081,Queens,-73.833451,40.721294,New York
36083,Rensselaer,-73.629889,42.699991,New York
36085,Richmond,-74.137304,40.588522999999995,New York
36087,Rockland,-74.019039,41.127623,New York
36089,St. Lawrence,-75.14970799999999,44.651458,New York
36091,Saratoga,-73.785787,43.008801,New York
36093,Schenectady,-73.946182,42.809284000000005,New York
36095,Schoharie,-74.436027,42.642508,New York
36097,Schuyler,-76.86912199999999,42.387815,New York
36099,Seneca,-76.828521,42.827354,New York
36101,Steuben,-77.320329,42.266288,New York
36103,Suffolk,-73.113775,40.821923999999996,New York
36105,Sullivan,-74.707459,41.700086,New York
36107,Tioga,-76.297151,42.120979999999996,New York
36109,Tompkins,-76.477416,42.460259,New York
36111,Ulster,-74.10074499999999,41.841064,New York
36113,Warren,-73.714626,43.396992,New York
36115,Washington,-73.45869300000001,43.290255,New York
36117,Wayne,-77.12668199999999,43.143734,New York
36119,Westchester,-73.804532,41.040535999999996,New York
36121,Wyoming,-78.218884,42.725753999999995,New York
36123,Yates,-77.078037,42.633657,New York
37001,Alamance,-79.41419300000001,36.071263,North Carolina
37003,Alexander,-81.191638,35.890299,North Carolina
37005,Alleghany,-81.105731,36.498332,North Carolina
37007,Anson,-80.11014499999999,34.972823999999996,North Carolina
37009,Ashe,-81.48975899999999,36.415077000000004,North Carolina
37011,Avery,-81.943907,36.07632,North Carolina
37013,Beaufort,-76.956571,35.519484000000006,North Carolina
37015,Bertie,-76.96888299999999,36.083776,North Carolina
37017,Bladen,-78.64109,34.607845000000005,North Carolina
37019,Brunswick,-78.22919499999999,34.03637,North Carolina
37021,Buncombe,-82.550087,35.587674,North Carolina
37023,Burke,-81.638347,35.730474,North Carolina
37025,Cabarrus,-80.612525,35.399234,North Carolina
37027,Caldwell,-81.503741,35.873614,North Carolina
37029,Camden,-76.19176,36.36267,North Carolina
37031,Carteret,-76.804454,34.746773,North Carolina
37033,Caswell,-79.36193100000001,36.402606,North Carolina
37035,Catawba,-81.245839,35.695409000000005,North Carolina
37037,Chatham,-79.236572,35.744124,North Carolina
37039,Cherokee,-84.016472,35.106484,North Carolina
37041,Chowan,-76.626254,36.116754,North Carolina
37043,Clay,-83.807512,35.035247999999996,North Carolina
37045,Cleveland,-81.51701700000001,35.292496,North Carolina
37047,Columbus,-78.709221,34.279270000000004,North Carolina
37049,Craven,-77.038555,35.066758,North Carolina
37051,Cumberland,-78.936138,35.056492999999996,North Carolina
37053,Currituck,-76.00904,36.391946000000004,North Carolina
37055,Dare,-75.674875,35.907564,North Carolina
37057,Davidson,-80.199539,35.853743,North Carolina
37059,Davie,-80.52158,35.929813,North Carolina
37061,Duplin,-77.943354,34.936096,North Carolina
37063,Durham,-78.9062,35.989801,North Carolina
37065,Edgecombe,-77.656297,35.903736,North Carolina
37067,Forsyth,-80.256625,36.106431,North Carolina
37069,Franklin,-78.340858,36.047826,North Carolina
37071,Gaston,-81.15657399999999,35.275594,North Carolina
37073,Gates,-76.70615699999999,36.46589,North Carolina
37075,Graham,-83.787962,35.330969,North Carolina
37077,Granville,-78.657114,36.223855,North Carolina
37079,Greene,-77.669536,35.468776,North Carolina
37081,Guilford,-79.850251,36.065215,North Carolina
37083,Halifax,-77.672949,36.353153000000006,North Carolina
37085,Harnett,-78.847096,35.359863,North Carolina
37087,Haywood,-82.939915,35.517983,North Carolina
37089,Henderson,-82.47235500000001,35.34095,North Carolina
37091,Hertford,-77.009973,36.351304,North Carolina
37093,Hoke,-79.177133,34.989624,North Carolina
37095,Hyde,-76.208134,35.43421,North Carolina
37097,Iredell,-80.86910300000001,35.707328000000004,North Carolina
37099,Jackson,-83.202489,35.335275,North Carolina
37101,Johnston,-78.41195400000001,35.560263,North Carolina
37103,Jones,-77.353062,35.027454,North Carolina
37105,Lee,-79.173135,35.459779,North Carolina
37107,Lenoir,-77.631874,35.262322999999995,North Carolina
37109,Lincoln,-81.178511,35.485027,North Carolina
37111,McDowell,-82.021507,35.667958,North Carolina
37113,Macon,-83.380756,35.157148,North Carolina
37115,Madison,-82.638666,35.839078,North Carolina
37117,Martin,-77.100767,35.83274,North Carolina
37119,Mecklenburg,-80.81662,35.223469,North Carolina
37121,Mitchell,-82.11434799999999,35.962278000000005,North Carolina
37123,Montgomery,-79.88204,35.338988,North Carolina
37125,Moore,-79.44678,35.244618,North Carolina
37127,Nash,-77.923901,35.947410999999995,North Carolina
37129,New Hanover,-77.879277,34.211687,North Carolina
37131,Northampton,-77.434731,36.431948,North Carolina
37133,Onslow,-77.400612,34.741545,North Carolina
37135,Orange,-79.081244,35.978596,North Carolina
37137,Pamlico,-76.775886,35.105356,North Carolina
37139,Pasquotank,-76.246298,36.293502000000004,North Carolina
37141,Pender,-77.836015,34.469476,North Carolina
37143,Perquimans,-76.424403,36.181298999999996,North Carolina
37145,Person,-78.970901,36.373422,North Carolina
37147,Pitt,-77.381178,35.57917,North Carolina
37149,Polk,-82.17545,35.258669,North Carolina
37151,Randolph,-79.82798100000001,35.766292,North Carolina
37153,Richmond,-79.733496,34.943604,North Carolina
37155,Robeson,-79.093867,34.674582,North Carolina
37157,Rockingham,-79.77260600000001,36.402246999999996,North Carolina
37159,Rowan,-80.521966,35.620395,North Carolina
37161,Rutherford,-81.89497800000001,35.348446,North Carolina
37163,Sampson,-78.396164,35.033839,North Carolina
37165,Scotland,-79.47868000000001,34.786334000000004,North Carolina
37167,Stanly,-80.247474,35.321525,North Carolina
37169,Stokes,-80.273917,36.350640000000006,North Carolina
37171,Surry,-80.656971,36.431314,North Carolina
37173,Swain,-83.413457,35.438412,North Carolina
37175,Transylvania,-82.74550699999999,35.2102,North Carolina
37177,Tyrrell,-76.238874,35.907144,North Carolina
37179,Union,-80.619702,35.013609,North Carolina
37181,Vance,-78.402101,36.331178,North Carolina
37183,Wake,-78.673074,35.797203,North Carolina
37185,Warren,-78.138543,36.409715000000006,North Carolina
37187,Washington,-76.649275,35.864206,North Carolina
37189,Watauga,-81.685479,36.220299,North Carolina
37191,Wayne,-77.98845899999999,35.370731,North Carolina
37193,Wilkes,-81.134214,36.193059000000005,North Carolina
37195,Wilson,-77.93132299999999,35.726988,North Carolina
37197,Yadkin,-80.675351,36.163573,North Carolina
37199,Yancey,-82.292339,35.910154999999996,North Carolina
38001,Adams,-102.625989,46.032949,North Dakota
38003,Barnes,-98.03303199999999,46.92752,North Dakota
38005,Benson,-99.14612199999999,48.020821999999995,North Dakota
38007,Billings,-103.30830300000001,47.016207,North Dakota
38009,Bottineau,-100.650317,48.820134,North Dakota
38011,Bowman,-103.39664599999999,46.171184999999994,North Dakota
38013,Burke,-102.521915,48.771943,North Dakota
38015,Burleigh,-100.76150799999999,46.822761,North Dakota
38017,Cass,-96.861406,46.860506,North Dakota
38019,Cavalier,-98.41499,48.755612,North Dakota
38021,Dickey,-98.32818499999999,46.087765999999995,North Dakota
38023,Divide,-103.348927,48.874965,North Dakota
38025,Dunn,-102.643252,47.332654,North Dakota
38027,Eddy,-99.051857,47.707976,North Dakota
38029,Emmons,-100.210914,46.265684,North Dakota
38031,Foster,-99.040279,47.461156,North Dakota
38033,Golden Valley,-103.96224699999999,46.894589,North Dakota
38035,Grand Forks,-97.120998,47.907658000000005,North Dakota
38037,Grant,-101.711807,46.387962,North Dakota
38039,Griggs,-98.18781,47.451199,North Dakota
38041,Hettinger,-102.544717,46.448932,North Dakota
38043,Kidder,-99.81366899999999,46.919486,North Dakota
38045,LaMoure,-98.52095899999999,46.405346,North Dakota
38047,Logan,-99.548585,46.498411,North Dakota
38049,McHenry,-100.694529,48.182793,North Dakota
38051,McIntosh,-99.492295,46.144162,North Dakota
38053,McKenzie,-103.228066,47.815540999999996,North Dakota
38055,McLean,-101.204564,47.523976,North Dakota
38057,Mercer,-101.710274,47.297717,North Dakota
38059,Morton,-101.011434,46.819739,North Dakota
38061,Mountrail,-102.371315,48.134702000000004,North Dakota
38063,Nelson,-98.209414,47.919339,North Dakota
38065,Oliver,-101.307901,47.121328000000005,North Dakota
38067,Pembina,-97.582307,48.789947,North Dakota
38069,Pierce,-99.988011,48.328165999999996,North Dakota
38071,Ramsey,-98.83484399999999,48.136409,North Dakota
38073,Ransom,-97.657193,46.478257,North Dakota
38075,Renville,-101.526364,48.721416,North Dakota
38077,Richland,-96.76635,46.264153,North Dakota
38079,Rolette,-99.817363,48.836027,North Dakota
38081,Sargent,-97.591691,46.163745,North Dakota
38083,Sheridan,-100.34015600000001,47.576556,North Dakota
38085,Sioux,-100.72635,46.161951,North Dakota
38087,Slope,-103.44374599999999,46.411465,North Dakota
38089,Stark,-102.785075,46.879757,North Dakota
38091,Steele,-97.746445,47.459656,North Dakota
38093,Stutsman,-98.74469599999999,46.915799,North Dakota
38095,Towner,-99.234305,48.584615,North Dakota
38097,Traill,-97.226828,47.491264,North Dakota
38099,Walsh,-97.55523199999999,48.390892,North Dakota
38101,Ward,-101.329338,48.256527,North Dakota
38103,Wells,-99.781286,47.676761,North Dakota
38105,Williams,-103.563682,48.199801,North Dakota
39001,Adams,-83.517043,38.848346,Ohio
39003,Allen,-84.121928,40.757675,Ohio
39005,Ashland,-82.285667,40.855216999999996,Ohio
39007,Ashtabula,-80.76757099999999,41.795339,Ohio
39009,Athens,-82.10024,39.345128,Ohio
39011,Auglaize,-84.269481,40.545245,Ohio
39013,Belmont,-80.88884,40.042095,Ohio
39015,Brown,-83.892944,38.948158,Ohio
39017,Butler,-84.50026700000001,39.410684,Ohio
39019,Carroll,-81.114892,40.608318,Ohio
39021,Champaign,-83.76028000000001,40.120684000000004,Ohio
39023,Clark,-83.832287,39.927147,Ohio
39025,Clermont,-84.212568,39.103441,Ohio
39027,Clinton,-83.842336,39.410548999999996,Ohio
39029,Columbiana,-80.730264,40.777774,Ohio
39031,Coshocton,-81.86511999999999,40.290804,Ohio
39033,Crawford,-82.874776,40.797377000000004,Ohio
39035,Cuyahoga,-81.676037,41.449624,Ohio
39037,Darke,-84.608214,40.115612,Ohio
39039,Defiance,-84.449086,41.295398,Ohio
39041,Delaware,-83.013223,40.216351,Ohio
39043,Erie,-82.627891,41.405481,Ohio
39045,Fairfield,-82.666944,39.795111,Ohio
39047,Fayette,-83.44380799999999,39.549717,Ohio
39049,Franklin,-82.993223,39.999581,Ohio
39051,Fulton,-84.094751,41.5785,Ohio
39053,Gallia,-82.274096,38.830628999999995,Ohio
39055,Geauga,-81.221561,41.489615,Ohio
39057,Greene,-83.996686,39.726403999999995,Ohio
39059,Guernsey,-81.541827,40.016788,Ohio
39061,Hamilton,-84.50859,39.180332,Ohio
39063,Hancock,-83.641951,41.039056,Ohio
39065,Hardin,-83.67575500000001,40.689386,Ohio
39067,Harrison,-81.05067199999999,40.308636,Ohio
39069,Henry,-84.076961,41.358702,Ohio
39071,Highland,-83.581988,39.220062,Ohio
39073,Hocking,-82.446275,39.522194,Ohio
39075,Holmes,-81.872764,40.567391,Ohio
39077,Huron,-82.614391,41.175374,Ohio
39079,Jackson,-82.610661,39.036265,Ohio
39081,Jefferson,-80.69422800000001,40.365108,Ohio
39083,Knox,-82.454649,40.399128000000005,Ohio
39085,Lake,-81.319338,41.685888,Ohio
39087,Lawrence,-82.540684,38.503018,Ohio
39089,Licking,-82.515759,40.05271,Ohio
39091,Logan,-83.779471,40.383676,Ohio
39093,Lorain,-82.112376,41.38987,Ohio
